[{"name":"garage transform","address":"2 Place de Tilsitt","postal_code":"27973","ville":"Saint-Denis","phone":" +33 00 19 14 49","latitude":"52.0937","longitude":"2.1908"},{"name":"garage generate","address":"73 Rue Saint-Séverin","postal_code":"81053","ville":"Montreuil","phone":" +33 25 81 15 79","latitude":"49.4025","longitude":"-1.7715"},{"name":"garage matrix","address":"4621 Passage Zadkine","postal_code":"92565","ville":"Issy-les-Moulineaux","phone":" +33 77 27 01 20","latitude":"48.8297","longitude":"-1.8060"},{"name":"garage integrate","address":"84 Avenue d'Abbeville","postal_code":"54892","ville":"Argenteuil","phone":" +33 52 56 37 21","latitude":"48.8513","longitude":"2.9275"},{"name":"garage embrace","address":"4406 Boulevard des Saussaies","postal_code":"77128","ville":"Hyères","phone":" +33 26 94 25 09","latitude":"53.8798","longitude":"-1.1301"},{"name":"garage innovate","address":"23 Voie de Montmorency","postal_code":"94065","ville":"Strasbourg","phone":" +33 03 07 94 74","latitude":"50.5640","longitude":"2.7160"},{"name":"garage brand","address":"783 Voie de la Victoire","postal_code":"70243","ville":"Argenteuil","phone":" +33 20 74 44 11","latitude":"46.3219","longitude":"-0.0088"},{"name":"garage e-enable","address":"0633 Impasse Charlemagne","postal_code":"49103","ville":"Colmar","phone":" +33 33 07 42 62","latitude":"52.6615","longitude":"4.9289"},{"name":"garage synergize","address":"10 Quai de Nesle","postal_code":"61256","ville":"Metz","phone":" +33 32 33 01 25","latitude":"51.0007","longitude":"1.9295"},{"name":"garage reintermediate","address":"594 Allée d'Abbeville","postal_code":"10787","ville":"Béziers","phone":" +33 72 61 24 84","latitude":"51.2102","longitude":"-0.2776"},{"name":"garage leverage","address":"825 Quai des Lombards","postal_code":"46376","ville":"Saint-Paul","phone":" +33 91 19 65 81","latitude":"50.3273","longitude":"-0.1759"},{"name":"garage grow","address":"0123 Passage Saint-Denis","postal_code":"69308","ville":"Saint-Quentin","phone":" +33 81 17 17 07","latitude":"49.7091","longitude":"-0.0558"},{"name":"garage transform","address":"3 Rue de Caumartin","postal_code":"93624","ville":"Montpellier","phone":" +33 77 41 21 80","latitude":"48.3575","longitude":"3.3789"},{"name":"garage recontextualize","address":"259 Voie du Havre","postal_code":"65147","ville":"Valence","phone":" +33 97 68 56 55","latitude":"47.5382","longitude":"3.5447"},{"name":"garage transform","address":"2 Voie des Rosiers","postal_code":"29362","ville":"Clichy","phone":" +33 78 79 87 70","latitude":"48.1480","longitude":"-0.1438"},{"name":"garage exploit","address":"5479 Voie du Faubourg Saint-Honoré","postal_code":"06168","ville":"Quimper","phone":" +33 16 53 17 79","latitude":"51.2985","longitude":"1.7009"},{"name":"garage monetize","address":"3186 Place de Nesle","postal_code":"92598","ville":"Metz","phone":" +33 36 40 16 35","latitude":"51.8087","longitude":"1.7562"},{"name":"garage enhance","address":"5 Allée d'Alésia","postal_code":"36021","ville":"Issy-les-Moulineaux","phone":" +33 66 00 96 78","latitude":"47.6517","longitude":"0.0127"},{"name":"garage maximize","address":"2 Boulevard d'Alésia","postal_code":"68818","ville":"Dijon","phone":" +33 87 95 45 34","latitude":"50.0422","longitude":"4.1813"},{"name":"garage generate","address":"4298 Passage du Havre","postal_code":"20835","ville":"Nantes","phone":" +33 22 73 52 97","latitude":"48.9576","longitude":"3.0927"},{"name":"garage synergize","address":"5 Quai Pierre Charron","postal_code":"04548","ville":"Saint-Étienne","phone":" +33 62 21 13 75","latitude":"49.6003","longitude":"2.1010"},{"name":"garage synergize","address":"5140 Passage Lepic","postal_code":"17110","ville":"Montpellier","phone":" +33 52 17 91 65","latitude":"48.8747","longitude":"1.8475"},{"name":"garage expedite","address":"92 Passage des Lombards","postal_code":"72550","ville":"Quimper","phone":" +33 78 66 65 49","latitude":"50.0690","longitude":"2.8621"},{"name":"garage envisioneer","address":"7 Rue du Dahomey","postal_code":"27727","ville":"La Seyne-sur-Mer","phone":" +33 35 53 64 78","latitude":"48.9652","longitude":"1.7686"},{"name":"garage enable","address":"6 Boulevard de Solférino","postal_code":"56916","ville":"Le Havre","phone":" +33 28 96 11 50","latitude":"47.5602","longitude":"2.5841"},{"name":"garage enable","address":"4421 Passage Charlemagne","postal_code":"55530","ville":"Marseille","phone":" +33 84 85 58 42","latitude":"52.2264","longitude":"0.7600"},{"name":"garage target","address":"488 Impasse Mouffetard","postal_code":"33837","ville":"Aulnay-sous-Bois","phone":" +33 93 26 63 01","latitude":"50.1123","longitude":"-2.5861"},{"name":"garage target","address":"1 Voie du Faubourg-Saint-Denis","postal_code":"86146","ville":"Rueil-Malmaison","phone":" +33 88 17 93 29","latitude":"47.7287","longitude":"1.6623"},{"name":"garage drive","address":"9528 Avenue du Faubourg Saint-Honoré","postal_code":"00224","ville":"Mérignac","phone":" +33 86 48 96 52","latitude":"50.0912","longitude":"3.1901"},{"name":"garage harness","address":"2680 Avenue Bonaparte","postal_code":"13412","ville":"Lille","phone":" +33 00 51 58 63","latitude":"47.7145","longitude":"2.6842"},{"name":"garage exploit","address":"697 Boulevard Saint-Honoré","postal_code":"06251","ville":"Sarcelles","phone":" +33 89 23 20 23","latitude":"48.6065","longitude":"3.5914"},{"name":"garage generate","address":"319 Avenue de Tilsitt","postal_code":"13690","ville":"Lorient","phone":" +33 04 06 12 41","latitude":"48.0073","longitude":"4.9134"},{"name":"garage syndicate","address":"5176 Voie du Havre","postal_code":"12325","ville":"Bourges","phone":" +33 77 58 75 64","latitude":"52.0024","longitude":"2.9278"},{"name":"garage generate","address":"98 Passage du Faubourg-Saint-Denis","postal_code":"42846","ville":"Perpignan","phone":" +33 94 09 40 00","latitude":"48.8757","longitude":"2.9948"},{"name":"garage integrate","address":"279 Passage de la Huchette","postal_code":"20193","ville":"Pau","phone":" +33 58 26 80 10","latitude":"45.1364","longitude":"4.1432"},{"name":"garage mesh","address":"6 Allée Adolphe Mille","postal_code":"27420","ville":"Le Mans","phone":" +33 11 24 53 70","latitude":"49.7019","longitude":"4.7802"},{"name":"garage engineer","address":"204 Impasse de la Victoire","postal_code":"07108","ville":"Paris","phone":" +33 86 38 62 40","latitude":"50.7359","longitude":"-1.4934"},{"name":"garage synthesize","address":"603 Boulevard de Tilsitt","postal_code":"10579","ville":"Villeurbanne","phone":" +33 05 80 30 34","latitude":"48.2961","longitude":"3.8207"},{"name":"garage whiteboard","address":"737 Impasse des Saussaies","postal_code":"49906","ville":"Valence","phone":" +33 65 13 67 14","latitude":"48.2102","longitude":"1.9874"},{"name":"garage incubate","address":"795 Passage de la Huchette","postal_code":"08039","ville":"Perpignan","phone":" +33 94 75 06 37","latitude":"48.8408","longitude":"-0.7032"},{"name":"garage repurpose","address":"29 Boulevard du Havre","postal_code":"03325","ville":"Niort","phone":" +33 47 13 15 05","latitude":"48.2036","longitude":"7.1595"},{"name":"garage deploy","address":"369 Boulevard de Seine","postal_code":"68952","ville":"Saint-Maur-des-Fossés","phone":" +33 78 00 85 82","latitude":"48.8253","longitude":"-0.5873"},{"name":"garage optimize","address":"0475 Passage de Tilsitt","postal_code":"07632","ville":"Hyères","phone":" +33 51 60 40 66","latitude":"46.1823","longitude":"1.8947"},{"name":"garage streamline","address":"3388 Passage des Rosiers","postal_code":"82623","ville":"Perpignan","phone":" +33 17 26 51 47","latitude":"47.2779","longitude":"2.7073"},{"name":"garage harness","address":"6 Impasse d'Assas","postal_code":"80488","ville":"Béziers","phone":" +33 60 17 44 64","latitude":"50.2596","longitude":"7.6786"},{"name":"garage integrate","address":"996 Passage Oberkampf","postal_code":"94346","ville":"Besançon","phone":" +33 33 14 18 90","latitude":"51.6941","longitude":"1.2033"},{"name":"garage cultivate","address":"37 Passage de la Huchette","postal_code":"00699","ville":"Perpignan","phone":" +33 19 60 31 33","latitude":"45.8233","longitude":"4.4165"},{"name":"garage redefine","address":"1 Place de Presbourg","postal_code":"71664","ville":"Nîmes","phone":" +33 59 02 41 99","latitude":"47.9981","longitude":"3.4381"},{"name":"garage whiteboard","address":"180 Rue Mouffetard","postal_code":"61203","ville":"Quimper","phone":" +33 92 54 95 53","latitude":"51.7835","longitude":"4.1881"},{"name":"garage revolutionize","address":"105 Place Marcadet","postal_code":"20604","ville":"Rouen","phone":" +33 24 67 61 28","latitude":"49.1426","longitude":"2.2070"},{"name":"garage morph","address":"309 Boulevard Adolphe Mille","postal_code":"00976","ville":"Saint-Maur-des-Fossés","phone":" +33 97 81 56 13","latitude":"48.0983","longitude":"3.4316"},{"name":"garage deliver","address":"467 Passage Bonaparte","postal_code":"82235","ville":"Cholet","phone":" +33 70 61 46 71","latitude":"52.3263","longitude":"3.8359"},{"name":"garage envisioneer","address":"1044 Rue de Provence","postal_code":"16408","ville":"Nice","phone":" +33 34 06 96 70","latitude":"51.3488","longitude":"1.7190"},{"name":"garage architect","address":"79 Boulevard de Caumartin","postal_code":"10616","ville":"Angers","phone":" +33 69 48 74 24","latitude":"45.3162","longitude":"4.1057"},{"name":"garage syndicate","address":"504 Voie Monsieur-le-Prince","postal_code":"02267","ville":"Quimper","phone":" +33 52 16 75 95","latitude":"49.4865","longitude":"-1.8480"},{"name":"garage matrix","address":"2268 Allée Laffitte","postal_code":"85591","ville":"Montauban","phone":" +33 86 48 39 19","latitude":"49.3444","longitude":"-1.2904"},{"name":"garage expedite","address":"7 Impasse de l'Abbaye","postal_code":"04434","ville":"Saint-Étienne","phone":" +33 02 49 83 76","latitude":"51.4760","longitude":"2.7771"},{"name":"garage cultivate","address":"90 Boulevard des Francs-Bourgeois","postal_code":"91655","ville":"Chambéry","phone":" +33 94 85 23 14","latitude":"52.0501","longitude":"3.4016"},{"name":"garage generate","address":"170 Voie de Tilsitt","postal_code":"39835","ville":"Saint-Denis","phone":" +33 47 78 10 48","latitude":"46.8501","longitude":"1.0335"},{"name":"garage empower","address":"31 Boulevard de l'Abbaye","postal_code":"94915","ville":"Grenoble","phone":" +33 08 12 55 45","latitude":"45.8922","longitude":"0.3740"},{"name":"garage envisioneer","address":"189 Quai d'Argenteuil","postal_code":"84181","ville":"Angers","phone":" +33 10 87 84 55","latitude":"50.3027","longitude":"1.1466"},{"name":"garage extend","address":"511 Boulevard Mouffetard","postal_code":"35126","ville":"Brest","phone":" +33 11 68 21 60","latitude":"50.0469","longitude":"3.9773"},{"name":"garage unleash","address":"6 Place Monsieur-le-Prince","postal_code":"46450","ville":"Bordeaux","phone":" +33 63 00 92 59","latitude":"50.0999","longitude":"3.1885"},{"name":"garage optimize","address":"140 Rue Charlemagne","postal_code":"63186","ville":"Drancy","phone":" +33 70 99 32 11","latitude":"49.5499","longitude":"1.1693"},{"name":"garage synergize","address":"97 Boulevard Saint-Honoré","postal_code":"16205","ville":"Marseille","phone":" +33 06 41 12 69","latitude":"48.6827","longitude":"3.5766"},{"name":"garage enhance","address":"8838 Passage Laffitte","postal_code":"44184","ville":"Paris","phone":" +33 74 58 06 37","latitude":"45.7602","longitude":"3.8330"},{"name":"garage deploy","address":"51 Voie d'Argenteuil","postal_code":"70101","ville":"Pau","phone":" +33 61 78 28 35","latitude":"48.3196","longitude":"3.4023"},{"name":"garage visualize","address":"3 Avenue Delesseux","postal_code":"62434","ville":"Le Tampon","phone":" +33 89 07 34 81","latitude":"50.2842","longitude":"4.3757"},{"name":"garage cultivate","address":"3 Place Saint-Bernard","postal_code":"27273","ville":"Le Tampon","phone":" +33 65 76 16 57","latitude":"45.8291","longitude":"1.4989"},{"name":"garage e-enable","address":"5 Quai Dauphine","postal_code":"58304","ville":"Villejuif","phone":" +33 19 91 39 51","latitude":"50.7309","longitude":"5.7562"},{"name":"garage incentivize","address":"2877 Rue Zadkine","postal_code":"18434","ville":"Villeneuve-d'Ascq","phone":" +33 05 53 91 27","latitude":"49.7205","longitude":"2.4084"},{"name":"garage maximize","address":"8 Impasse de Nesle","postal_code":"13381","ville":"Limoges","phone":" +33 97 13 13 70","latitude":"49.7396","longitude":"3.5294"},{"name":"garage envisioneer","address":"2533 Avenue de Seine","postal_code":"05009","ville":"Toulouse","phone":" +33 86 72 15 62","latitude":"47.2226","longitude":"2.5679"},{"name":"garage orchestrate","address":"85 Rue Saint-Honoré","postal_code":"15411","ville":"Sarcelles","phone":" +33 94 57 62 49","latitude":"52.8925","longitude":"3.0847"},{"name":"garage architect","address":"2498 Passage Molière","postal_code":"82352","ville":"La Rochelle","phone":" +33 35 93 00 32","latitude":"52.0121","longitude":"2.1500"},{"name":"garage redefine","address":"0593 Voie Saint-Séverin","postal_code":"19288","ville":"Lyon","phone":" +33 22 09 70 13","latitude":"52.4514","longitude":"3.5168"},{"name":"garage embrace","address":"32 Passage Vaneau","postal_code":"78975","ville":"Issy-les-Moulineaux","phone":" +33 06 03 62 75","latitude":"48.8150","longitude":"1.6182"},{"name":"garage scale","address":"2 Avenue de Caumartin","postal_code":"13966","ville":"Metz","phone":" +33 24 63 83 02","latitude":"50.8727","longitude":"2.8400"},{"name":"garage optimize","address":"0357 Allée de l'Odéon","postal_code":"59272","ville":"Perpignan","phone":" +33 42 44 74 60","latitude":"49.4149","longitude":"-0.0824"},{"name":"garage expedite","address":"7 Boulevard du Chat-qui-Pêche","postal_code":"89560","ville":"Strasbourg","phone":" +33 22 75 76 14","latitude":"49.9912","longitude":"3.6788"},{"name":"garage synthesize","address":"704 Place Mouffetard","postal_code":"35502","ville":"Nantes","phone":" +33 53 91 24 88","latitude":"52.4857","longitude":"0.8208"},{"name":"garage mesh","address":"883 Impasse Saint-Séverin","postal_code":"18495","ville":"Dijon","phone":" +33 10 45 06 83","latitude":"46.0221","longitude":"2.0121"},{"name":"garage utilize","address":"267 Allée Marcadet","postal_code":"15353","ville":"Nice","phone":" +33 45 68 09 59","latitude":"48.3883","longitude":"2.1157"},{"name":"garage streamline","address":"260 Rue du Chat-qui-Pêche","postal_code":"17121","ville":"Cannes","phone":" +33 10 60 54 95","latitude":"49.8222","longitude":"5.1444"},{"name":"garage strategize","address":"195 Voie d'Argenteuil","postal_code":"09568","ville":"Antibes","phone":" +33 74 24 85 21","latitude":"49.0070","longitude":"4.6574"},{"name":"garage extend","address":"754 Boulevard du Faubourg Saint-Honoré","postal_code":"55838","ville":"Bordeaux","phone":" +33 00 70 82 04","latitude":"48.5587","longitude":"1.6513"},{"name":"garage morph","address":"9006 Avenue de la Ferronnerie","postal_code":"94567","ville":"Saint-Denis","phone":" +33 50 45 00 54","latitude":"52.8774","longitude":"0.6460"},{"name":"garage envisioneer","address":"5 Place Vaneau","postal_code":"03766","ville":"Vénissieux","phone":" +33 17 72 98 59","latitude":"45.5562","longitude":"7.2340"},{"name":"garage matrix","address":"05 Allée de Caumartin","postal_code":"23963","ville":"Aulnay-sous-Bois","phone":" +33 41 46 56 50","latitude":"50.5696","longitude":"1.9866"},{"name":"garage architect","address":"2 Voie de la Huchette","postal_code":"23284","ville":"Toulouse","phone":" +33 87 30 33 30","latitude":"46.0501","longitude":"0.6297"},{"name":"garage utilize","address":"745 Quai Du Sommerard","postal_code":"86157","ville":"Colmar","phone":" +33 56 06 67 37","latitude":"45.1026","longitude":"2.5495"},{"name":"garage facilitate","address":"701 Place du Chat-qui-Pêche","postal_code":"09345","ville":"Villeurbanne","phone":" +33 39 34 99 32","latitude":"46.1301","longitude":"1.4321"},{"name":"garage cultivate","address":"9766 Boulevard du Dahomey","postal_code":"60136","ville":"Saint-Maur-des-Fossés","phone":" +33 26 18 15 94","latitude":"51.1695","longitude":"3.3358"},{"name":"garage unleash","address":"2 Allée de Vaugirard","postal_code":"82646","ville":"Fort-de-France","phone":" +33 27 93 31 66","latitude":"48.0695","longitude":"2.8180"},{"name":"garage engineer","address":"9 Rue de la Harpe","postal_code":"48813","ville":"Nice","phone":" +33 51 76 60 00","latitude":"47.3005","longitude":"5.6669"},{"name":"garage maximize","address":"9 Impasse du Bac","postal_code":"01168","ville":"Saint-Pierre","phone":" +33 68 58 42 08","latitude":"48.5887","longitude":"-2.3101"},{"name":"garage exploit","address":"7 Boulevard Montorgueil","postal_code":"63873","ville":"Levallois-Perret","phone":" +33 16 87 06 24","latitude":"46.7987","longitude":"0.6232"},{"name":"garage generate","address":"6 Allée de la Huchette","postal_code":"18164","ville":"Amiens","phone":" +33 24 38 53 52","latitude":"49.0256","longitude":"0.3209"},{"name":"garage benchmark","address":"85 Boulevard de Solférino","postal_code":"75964","ville":"Neuilly-sur-Seine","phone":" +33 54 36 57 04","latitude":"46.7067","longitude":"2.3507"},{"name":"garage strategize","address":"4532 Quai des Francs-Bourgeois","postal_code":"05317","ville":"Saint-Maur-des-Fossés","phone":" +33 25 21 06 31","latitude":"46.2544","longitude":"3.3835"},{"name":"garage reintermediate","address":"855 Passage Royale","postal_code":"78565","ville":"Le Havre","phone":" +33 81 05 04 90","latitude":"52.2267","longitude":"4.2068"},{"name":"garage expedite","address":"71 Voie des Rosiers","postal_code":"28958","ville":"Clichy","phone":" +33 41 49 66 23","latitude":"48.6589","longitude":"-0.6850"},{"name":"garage syndicate","address":"8 Avenue du Dahomey","postal_code":"11386","ville":"Toulouse","phone":" +33 79 29 70 86","latitude":"49.6128","longitude":"1.3374"},{"name":"garage benchmark","address":"937 Avenue Delesseux","postal_code":"45362","ville":"Montauban","phone":" +33 89 71 77 54","latitude":"49.7139","longitude":"5.0349"},{"name":"garage extend","address":"513 Avenue Vaneau","postal_code":"29020","ville":"Villejuif","phone":" +33 79 09 21 98","latitude":"49.2884","longitude":"0.5276"},{"name":"garage reintermediate","address":"54 Quai Saint-Honoré","postal_code":"71093","ville":"Argenteuil","phone":" +33 25 04 20 63","latitude":"45.7022","longitude":"-1.0131"},{"name":"garage generate","address":"446 Allée d'Argenteuil","postal_code":"80369","ville":"Versailles","phone":" +33 37 97 64 11","latitude":"45.7261","longitude":"3.4578"},{"name":"garage exploit","address":"8 Passage de la Chaussée-d'Antin","postal_code":"11744","ville":"Hyères","phone":" +33 42 91 98 80","latitude":"48.6104","longitude":"1.5002"},{"name":"garage maximize","address":"44 Place de la Victoire","postal_code":"51622","ville":"Béziers","phone":" +33 44 99 75 01","latitude":"44.1520","longitude":"3.7851"},{"name":"garage utilize","address":"8 Rue des Panoramas","postal_code":"51780","ville":"Cholet","phone":" +33 79 27 51 32","latitude":"50.7547","longitude":"2.0609"},{"name":"garage revolutionize","address":"95 Place de la Huchette","postal_code":"89095","ville":"Vitry-sur-Seine","phone":" +33 34 03 34 87","latitude":"48.1060","longitude":"2.2527"},{"name":"garage visualize","address":"077 Place des Rosiers","postal_code":"50664","ville":"Lille","phone":" +33 11 29 35 63","latitude":"47.1262","longitude":"3.1380"},{"name":"garage iterate","address":"707 Allée Dauphine","postal_code":"51691","ville":"Montpellier","phone":" +33 40 28 08 41","latitude":"47.8067","longitude":"2.4259"},{"name":"garage revolutionize","address":"374 Impasse de Tilsitt","postal_code":"07550","ville":"Tourcoing","phone":" +33 60 46 66 56","latitude":"51.3595","longitude":"3.8692"},{"name":"garage empower","address":"37 Avenue de la Bûcherie","postal_code":"29669","ville":"Metz","phone":" +33 44 24 96 21","latitude":"49.1528","longitude":"3.6892"},{"name":"garage harness","address":"3 Boulevard d'Argenteuil","postal_code":"24183","ville":"Saint-Pierre","phone":" +33 12 01 31 00","latitude":"47.4643","longitude":"1.3324"},{"name":"garage benchmark","address":"1 Impasse Molière","postal_code":"18270","ville":"Villeneuve-d'Ascq","phone":" +33 19 26 04 27","latitude":"49.0679","longitude":"3.3530"},{"name":"garage architect","address":"0984 Boulevard du Faubourg Saint-Honoré","postal_code":"45022","ville":"Tourcoing","phone":" +33 55 78 05 53","latitude":"51.3019","longitude":"1.4225"},{"name":"garage deliver","address":"5219 Place de Tilsitt","postal_code":"53325","ville":"Lille","phone":" +33 20 79 24 35","latitude":"43.9520","longitude":"2.6377"},{"name":"garage streamline","address":"587 Voie de Nesle","postal_code":"18107","ville":"Issy-les-Moulineaux","phone":" +33 13 69 77 05","latitude":"51.5469","longitude":"-0.4993"},{"name":"garage generate","address":"342 Passage des Lombards","postal_code":"00476","ville":"Antibes","phone":" +33 49 92 48 90","latitude":"47.8290","longitude":"7.0692"},{"name":"garage brand","address":"322 Avenue d'Orsel","postal_code":"72006","ville":"Aubervilliers","phone":" +33 97 89 07 17","latitude":"49.2590","longitude":"1.7226"},{"name":"garage utilize","address":"7 Rue de la Chaussée-d'Antin","postal_code":"35331","ville":"Paris","phone":" +33 11 86 94 57","latitude":"49.8851","longitude":"2.4357"},{"name":"garage expedite","address":"631 Passage de la Huchette","postal_code":"96172","ville":"Saint-Denis","phone":" +33 58 90 12 98","latitude":"53.1123","longitude":"1.5292"},{"name":"garage iterate","address":"4165 Impasse Zadkine","postal_code":"03650","ville":"Strasbourg","phone":" +33 27 36 30 33","latitude":"49.9442","longitude":"0.1906"},{"name":"garage streamline","address":"5838 Rue Monsieur-le-Prince","postal_code":"00870","ville":"Vénissieux","phone":" +33 20 15 41 86","latitude":"50.5055","longitude":"1.2025"},{"name":"garage enhance","address":"5 Passage Montorgueil","postal_code":"51806","ville":"Tours","phone":" +33 29 98 24 95","latitude":"46.4160","longitude":"2.0866"},{"name":"garage whiteboard","address":"9 Quai de Paris","postal_code":"91358","ville":"Mulhouse","phone":" +33 96 23 53 62","latitude":"48.1652","longitude":"1.9154"},{"name":"garage innovate","address":"8799 Voie de la Victoire","postal_code":"71104","ville":"Créteil","phone":" +33 21 99 14 35","latitude":"51.6567","longitude":"2.1442"},{"name":"garage deliver","address":"873 Boulevard des Rosiers","postal_code":"85690","ville":"Bourges","phone":" +33 17 93 63 85","latitude":"48.8916","longitude":"7.1210"},{"name":"garage facilitate","address":"77 Place Molière","postal_code":"51458","ville":"Bordeaux","phone":" +33 84 99 42 24","latitude":"49.0624","longitude":"1.5103"},{"name":"garage extend","address":"547 Allée d'Orsel","postal_code":"96240","ville":"Colmar","phone":" +33 57 02 84 75","latitude":"49.5970","longitude":"2.7379"},{"name":"garage integrate","address":"728 Avenue de l'Abbaye","postal_code":"47328","ville":"Champigny-sur-Marne","phone":" +33 02 50 50 84","latitude":"47.2257","longitude":"-0.4128"},{"name":"garage redefine","address":"5535 Impasse de Tilsitt","postal_code":"68163","ville":"Dijon","phone":" +33 32 96 92 89","latitude":"52.5218","longitude":"2.1189"},{"name":"garage scale","address":"3849 Place du Chat-qui-Pêche","postal_code":"20074","ville":"Saint-Denis","phone":" +33 75 41 09 53","latitude":"48.2365","longitude":"2.4489"},{"name":"garage benchmark","address":"1 Avenue d'Abbeville","postal_code":"14851","ville":"Aix-en-Provence","phone":" +33 40 98 88 06","latitude":"52.2351","longitude":"2.4204"},{"name":"garage expedite","address":"494 Impasse de l'Abbaye","postal_code":"16666","ville":"Orléans","phone":" +33 91 73 85 81","latitude":"48.0980","longitude":"2.1112"},{"name":"garage scale","address":"3 Impasse La Boétie","postal_code":"73137","ville":"Hyères","phone":" +33 55 86 24 16","latitude":"45.8079","longitude":"2.6402"},{"name":"garage optimize","address":"5 Voie de Provence","postal_code":"35204","ville":"Asnières-sur-Seine","phone":" +33 88 70 77 23","latitude":"50.6671","longitude":"0.6369"},{"name":"garage deliver","address":"13 Rue de Nesle","postal_code":"85012","ville":"Strasbourg","phone":" +33 66 71 97 12","latitude":"48.4011","longitude":"-1.6611"},{"name":"garage unleash","address":"11 Quai de Caumartin","postal_code":"17873","ville":"Cergy","phone":" +33 82 45 35 79","latitude":"47.5851","longitude":"2.0606"},{"name":"garage productize","address":"1 Avenue de Tilsitt","postal_code":"19673","ville":"Antibes","phone":" +33 23 18 21 53","latitude":"48.8585","longitude":"1.4918"},{"name":"garage transform","address":"8 Quai de Caumartin","postal_code":"22929","ville":"Aulnay-sous-Bois","phone":" +33 47 14 63 70","latitude":"53.7226","longitude":"3.2956"},{"name":"garage reinvent","address":"4 Quai d'Assas","postal_code":"19244","ville":"Lorient","phone":" +33 44 70 55 59","latitude":"45.2984","longitude":"-1.0482"},{"name":"garage disintermediate","address":"7358 Place de Montmorency","postal_code":"17233","ville":"Sarcelles","phone":" +33 38 69 93 56","latitude":"46.2100","longitude":"-0.0818"},{"name":"garage streamline","address":"112 Allée Joubert","postal_code":"21506","ville":"Ivry-sur-Seine","phone":" +33 47 80 02 15","latitude":"48.4710","longitude":"1.2667"},{"name":"garage transition","address":"79 Allée Du Sommerard","postal_code":"85062","ville":"Aix-en-Provence","phone":" +33 48 74 66 98","latitude":"48.8027","longitude":"2.4480"},{"name":"garage integrate","address":"02 Avenue du Chat-qui-Pêche","postal_code":"69618","ville":"Levallois-Perret","phone":" +33 17 47 85 98","latitude":"50.8395","longitude":"3.9453"},{"name":"garage grow","address":"6 Boulevard de Presbourg","postal_code":"56641","ville":"Antibes","phone":" +33 89 79 76 71","latitude":"49.8412","longitude":"5.3865"},{"name":"garage synergize","address":"29 Passage Laffitte","postal_code":"66810","ville":"Dijon","phone":" +33 15 53 02 82","latitude":"46.2617","longitude":"2.3304"},{"name":"garage unleash","address":"8 Rue du Faubourg Saint-Honoré","postal_code":"74489","ville":"Paris","phone":" +33 25 22 85 63","latitude":"50.8476","longitude":"2.9507"},{"name":"garage synthesize","address":"00 Allée des Rosiers","postal_code":"08826","ville":"Perpignan","phone":" +33 37 90 05 93","latitude":"52.4175","longitude":"5.6249"},{"name":"garage engage","address":"6437 Allée Saint-Denis","postal_code":"12372","ville":"Antony","phone":" +33 74 06 88 31","latitude":"52.5623","longitude":"-1.9311"},{"name":"garage monetize","address":"5527 Voie Royale","postal_code":"17290","ville":"Toulon","phone":" +33 52 04 92 60","latitude":"53.6851","longitude":"0.3576"},{"name":"garage extend","address":"30 Voie Marcadet","postal_code":"45017","ville":"Marseille","phone":" +33 97 56 89 50","latitude":"53.3261","longitude":"5.0598"},{"name":"garage e-enable","address":"883 Voie des Lombards","postal_code":"50476","ville":"Ivry-sur-Seine","phone":" +33 35 79 50 40","latitude":"50.1719","longitude":"1.8893"},{"name":"garage integrate","address":"174 Passage Saint-Séverin","postal_code":"95346","ville":"Saint-Nazaire","phone":" +33 62 22 39 89","latitude":"47.5880","longitude":"2.2864"},{"name":"garage visualize","address":"2325 Place Vaneau","postal_code":"91561","ville":"Versailles","phone":" +33 18 98 15 12","latitude":"49.6337","longitude":"2.4557"},{"name":"garage reinvent","address":"809 Allée Charlemagne","postal_code":"15592","ville":"Le Mans","phone":" +33 10 30 70 75","latitude":"46.8167","longitude":"2.3623"},{"name":"garage architect","address":"17 Rue du Chat-qui-Pêche","postal_code":"15528","ville":"Roubaix","phone":" +33 60 76 02 10","latitude":"51.9013","longitude":"2.1447"},{"name":"garage monetize","address":"7975 Avenue d'Orsel","postal_code":"50343","ville":"Cayenne","phone":" +33 39 07 33 96","latitude":"46.7737","longitude":"2.6656"},{"name":"garage envisioneer","address":"46 Allée de la Chaussée-d'Antin","postal_code":"93282","ville":"Drancy","phone":" +33 25 60 41 23","latitude":"48.8339","longitude":"4.8443"},{"name":"garage reinvent","address":"0785 Boulevard Saint-Jacques","postal_code":"39470","ville":"La Seyne-sur-Mer","phone":" +33 48 57 63 80","latitude":"50.3906","longitude":"-0.4366"},{"name":"garage engineer","address":"6 Voie de Caumartin","postal_code":"54194","ville":"Marseille","phone":" +33 48 85 88 67","latitude":"47.6704","longitude":"3.4881"},{"name":"garage disintermediate","address":"43 Place Bonaparte","postal_code":"71590","ville":"Créteil","phone":" +33 43 92 70 46","latitude":"49.8893","longitude":"-2.7318"},{"name":"garage envisioneer","address":"6097 Voie de la Huchette","postal_code":"90794","ville":"Saint-Denis","phone":" +33 73 73 89 52","latitude":"47.5719","longitude":"2.7220"},{"name":"garage drive","address":"6 Avenue Bonaparte","postal_code":"27190","ville":"Saint-Denis","phone":" +33 11 03 16 96","latitude":"46.4778","longitude":"2.2829"},{"name":"garage engineer","address":"51 Voie Pastourelle","postal_code":"47319","ville":"Clermont-Ferrand","phone":" +33 91 85 38 22","latitude":"48.5963","longitude":"5.8065"},{"name":"garage revolutionize","address":"4544 Passage d'Abbeville","postal_code":"99903","ville":"Béziers","phone":" +33 69 62 35 17","latitude":"52.8208","longitude":"1.3838"},{"name":"garage implement","address":"723 Quai de Richelieu","postal_code":"58628","ville":"Clichy","phone":" +33 53 57 28 47","latitude":"46.1515","longitude":"2.1144"},{"name":"garage deliver","address":"6 Allée d'Abbeville","postal_code":"78701","ville":"Fort-de-France","phone":" +33 30 58 59 68","latitude":"48.0793","longitude":"3.4123"},{"name":"garage utilize","address":"550 Boulevard Montorgueil","postal_code":"80429","ville":"La Rochelle","phone":" +33 63 43 36 54","latitude":"45.4550","longitude":"4.7498"},{"name":"garage brand","address":"638 Allée de l'Abbaye","postal_code":"48026","ville":"Clermont-Ferrand","phone":" +33 12 04 82 97","latitude":"51.3504","longitude":"1.1533"},{"name":"garage deploy","address":"62 Avenue Charlemagne","postal_code":"30312","ville":"Marseille","phone":" +33 63 13 19 90","latitude":"53.4649","longitude":"3.0039"},{"name":"garage extend","address":"1 Avenue Lepic","postal_code":"54938","ville":"Champigny-sur-Marne","phone":" +33 92 03 59 07","latitude":"48.9124","longitude":"2.5122"},{"name":"garage brand","address":"3737 Rue Bonaparte","postal_code":"72067","ville":"Marseille","phone":" +33 14 24 40 81","latitude":"51.4272","longitude":"3.9316"},{"name":"garage scale","address":"7562 Passage Saint-Jacques","postal_code":"17950","ville":"Sarcelles","phone":" +33 15 76 96 00","latitude":"50.6490","longitude":"2.5239"},{"name":"garage transform","address":"1121 Quai du Bac","postal_code":"76111","ville":"Caen","phone":" +33 47 58 94 57","latitude":"50.7818","longitude":"2.6836"},{"name":"garage syndicate","address":"82 Boulevard d'Alésia","postal_code":"43264","ville":"Rennes","phone":" +33 27 01 79 72","latitude":"45.3499","longitude":"-0.3099"},{"name":"garage brand","address":"05 Avenue de la Chaussée-d'Antin","postal_code":"75615","ville":"Montpellier","phone":" +33 09 47 52 19","latitude":"49.9260","longitude":"5.8019"},{"name":"garage visualize","address":"4682 Quai Du Sommerard","postal_code":"39004","ville":"Dijon","phone":" +33 19 76 15 93","latitude":"45.2286","longitude":"0.9127"},{"name":"garage harness","address":"3578 Quai Molière","postal_code":"21527","ville":"Nantes","phone":" +33 40 98 01 17","latitude":"50.3506","longitude":"2.2944"},{"name":"garage streamline","address":"8475 Quai Bonaparte","postal_code":"43055","ville":"Paris","phone":" +33 06 75 72 15","latitude":"46.3637","longitude":"4.2320"},{"name":"garage revolutionize","address":"1 Avenue des Francs-Bourgeois","postal_code":"77688","ville":"Roubaix","phone":" +33 06 29 93 57","latitude":"49.6454","longitude":"3.9210"},{"name":"garage aggregate","address":"7 Impasse Marcadet","postal_code":"06683","ville":"Noisy-le-Grand","phone":" +33 18 15 65 57","latitude":"49.7670","longitude":"3.3471"},{"name":"garage unleash","address":"374 Passage de Provence","postal_code":"78104","ville":"Nanterre","phone":" +33 65 67 85 84","latitude":"48.9764","longitude":"2.5869"},{"name":"garage reintermediate","address":"89 Impasse Saint-Dominique","postal_code":"66829","ville":"Drancy","phone":" +33 62 51 65 71","latitude":"47.1897","longitude":"3.6916"},{"name":"garage utilize","address":"51 Boulevard Vaneau","postal_code":"16395","ville":"Toulouse","phone":" +33 83 25 64 71","latitude":"53.7273","longitude":"2.0669"},{"name":"garage cultivate","address":"598 Quai Dauphine","postal_code":"68131","ville":"Rennes","phone":" +33 56 37 94 24","latitude":"53.3555","longitude":"6.0067"},{"name":"garage harness","address":"7 Allée Vaneau","postal_code":"63988","ville":"Bordeaux","phone":" +33 54 06 50 32","latitude":"48.0317","longitude":"-0.8428"},{"name":"garage optimize","address":"181 Avenue du Bac","postal_code":"05735","ville":"Metz","phone":" +33 41 74 51 28","latitude":"46.2778","longitude":"2.2631"},{"name":"garage transition","address":"7735 Voie des Saussaies","postal_code":"53589","ville":"Cergy","phone":" +33 21 52 30 52","latitude":"46.6716","longitude":"4.1979"},{"name":"garage orchestrate","address":"59 Avenue Bonaparte","postal_code":"24602","ville":"Marseille","phone":" +33 62 12 19 87","latitude":"49.1182","longitude":"0.7542"},{"name":"garage incubate","address":"310 Passage Monsieur-le-Prince","postal_code":"43273","ville":"Nancy","phone":" +33 01 38 64 89","latitude":"48.3161","longitude":"1.2828"},{"name":"garage expedite","address":"5 Impasse de la Chaussée-d'Antin","postal_code":"15071","ville":"Rueil-Malmaison","phone":" +33 22 51 62 14","latitude":"48.0840","longitude":"3.2291"},{"name":"garage iterate","address":"4968 Impasse du Bac","postal_code":"35586","ville":"Hyères","phone":" +33 59 29 82 23","latitude":"52.1658","longitude":"0.6167"},{"name":"garage unleash","address":"310 Boulevard Du Sommerard","postal_code":"40852","ville":"Amiens","phone":" +33 54 33 02 63","latitude":"46.6232","longitude":"-2.1893"},{"name":"garage disintermediate","address":"483 Avenue des Lombards","postal_code":"68595","ville":"Nanterre","phone":" +33 63 95 71 59","latitude":"48.4806","longitude":"2.8804"},{"name":"garage matrix","address":"395 Passage Du Sommerard","postal_code":"76829","ville":"Toulouse","phone":" +33 49 27 96 82","latitude":"46.5052","longitude":"0.3552"},{"name":"garage evolve","address":"98 Rue des Saussaies","postal_code":"11443","ville":"Angers","phone":" +33 59 67 25 56","latitude":"47.9476","longitude":"2.0086"},{"name":"garage cultivate","address":"5 Passage des Rosiers","postal_code":"73646","ville":"Toulouse","phone":" +33 71 03 75 76","latitude":"50.2431","longitude":"0.6641"},{"name":"garage reinvent","address":"2 Passage Pastourelle","postal_code":"55927","ville":"Rueil-Malmaison","phone":" +33 30 12 84 73","latitude":"49.9643","longitude":"1.5804"},{"name":"garage transition","address":"028 Place Laffitte","postal_code":"17768","ville":"La Rochelle","phone":" +33 18 38 57 06","latitude":"48.7355","longitude":"1.9839"},{"name":"garage drive","address":"7 Passage Saint-Denis","postal_code":"02675","ville":"Bourges","phone":" +33 51 02 87 48","latitude":"48.1848","longitude":"1.3007"},{"name":"garage matrix","address":"9470 Boulevard Monsieur-le-Prince","postal_code":"64826","ville":"Villeneuve-d'Ascq","phone":" +33 91 86 20 13","latitude":"46.5452","longitude":"1.3220"},{"name":"garage maximize","address":"38 Impasse Saint-Dominique","postal_code":"87461","ville":"Paris","phone":" +33 76 78 76 98","latitude":"53.9860","longitude":"-0.2872"},{"name":"garage architect","address":"77 Place du Dahomey","postal_code":"52087","ville":"Noisy-le-Grand","phone":" +33 23 36 40 62","latitude":"52.2795","longitude":"6.2285"},{"name":"garage seize","address":"91 Rue Du Sommerard","postal_code":"62539","ville":"Champigny-sur-Marne","phone":" +33 29 25 37 61","latitude":"44.2358","longitude":"3.1228"},{"name":"garage enable","address":"8 Place de la Victoire","postal_code":"67023","ville":"Mérignac","phone":" +33 68 99 59 19","latitude":"49.2478","longitude":"2.6935"},{"name":"garage target","address":"6581 Rue du Havre","postal_code":"07834","ville":"Fort-de-France","phone":" +33 38 37 29 00","latitude":"49.5575","longitude":"0.2289"},{"name":"garage empower","address":"5 Place d'Alésia","postal_code":"75939","ville":"Drancy","phone":" +33 19 20 68 54","latitude":"49.4643","longitude":"6.0028"},{"name":"garage synthesize","address":"586 Quai de Paris","postal_code":"41022","ville":"Toulouse","phone":" +33 49 20 40 26","latitude":"49.6715","longitude":"2.4179"},{"name":"garage orchestrate","address":"5 Place du Bac","postal_code":"44090","ville":"Toulouse","phone":" +33 22 51 71 11","latitude":"51.3389","longitude":"-2.2234"},{"name":"garage implement","address":"5865 Passage La Boétie","postal_code":"46449","ville":"Reims","phone":" +33 78 64 39 75","latitude":"50.7937","longitude":"-0.2079"},{"name":"garage disintermediate","address":"2 Impasse Royale","postal_code":"91317","ville":"Mérignac","phone":" +33 61 96 73 57","latitude":"53.0792","longitude":"-0.7547"},{"name":"garage streamline","address":"911 Quai de la Bûcherie","postal_code":"84004","ville":"Amiens","phone":" +33 18 17 40 27","latitude":"53.7741","longitude":"0.1689"},{"name":"garage cultivate","address":"9707 Rue de Seine","postal_code":"42686","ville":"Vénissieux","phone":" +33 47 17 48 93","latitude":"47.9869","longitude":"-1.4621"},{"name":"garage exploit","address":"79 Rue Molière","postal_code":"47690","ville":"Saint-Denis","phone":" +33 48 97 59 88","latitude":"48.6922","longitude":"2.2994"},{"name":"garage innovate","address":"243 Quai de Tilsitt","postal_code":"77523","ville":"Saint-Étienne","phone":" +33 41 18 92 21","latitude":"49.4279","longitude":"0.4660"},{"name":"garage enhance","address":"346 Boulevard Pastourelle","postal_code":"82343","ville":"Argenteuil","phone":" +33 35 80 86 37","latitude":"49.0463","longitude":"2.4776"},{"name":"garage redefine","address":"9 Passage de Caumartin","postal_code":"87469","ville":"Cannes","phone":" +33 11 70 17 00","latitude":"48.1230","longitude":"-1.7896"},{"name":"garage strategize","address":"61 Passage Saint-Jacques","postal_code":"94721","ville":"Dunkerque","phone":" +33 50 66 50 88","latitude":"49.2963","longitude":"4.4879"},{"name":"garage syndicate","address":"21 Rue de la Chaussée-d'Antin","postal_code":"46706","ville":"Marseille","phone":" +33 92 86 89 63","latitude":"51.0994","longitude":"0.8801"},{"name":"garage deliver","address":"845 Place Adolphe Mille","postal_code":"68804","ville":"Courbevoie","phone":" +33 26 56 08 20","latitude":"49.1412","longitude":"2.3342"},{"name":"garage whiteboard","address":"723 Boulevard Saint-Bernard","postal_code":"18219","ville":"Marseille","phone":" +33 16 37 81 73","latitude":"49.2262","longitude":"2.2283"},{"name":"garage seize","address":"71 Avenue Mouffetard","postal_code":"61955","ville":"Dunkerque","phone":" +33 86 91 90 23","latitude":"46.2694","longitude":"3.6337"},{"name":"garage facilitate","address":"613 Rue des Grands Augustins","postal_code":"58462","ville":"Paris","phone":" +33 50 27 44 44","latitude":"49.3417","longitude":"-0.0005"},{"name":"garage whiteboard","address":"9549 Voie Royale","postal_code":"08784","ville":"Reims","phone":" +33 08 76 78 54","latitude":"47.7085","longitude":"1.8696"},{"name":"garage incentivize","address":"667 Voie d'Orsel","postal_code":"40317","ville":"Villejuif","phone":" +33 15 87 72 15","latitude":"48.2100","longitude":"2.7970"},{"name":"garage exploit","address":"582 Impasse d'Argenteuil","postal_code":"84346","ville":"Roubaix","phone":" +33 82 16 84 70","latitude":"46.7883","longitude":"1.6605"},{"name":"garage redefine","address":"78 Place Saint-Jacques","postal_code":"94057","ville":"Troyes","phone":" +33 73 62 80 82","latitude":"49.1294","longitude":"4.8895"},{"name":"garage generate","address":"028 Boulevard Joubert","postal_code":"36864","ville":"Villejuif","phone":" +33 06 01 23 35","latitude":"48.7401","longitude":"1.6523"},{"name":"garage drive","address":"532 Allée de Solférino","postal_code":"92326","ville":"Le Mans","phone":" +33 93 63 46 26","latitude":"49.9927","longitude":"5.2015"},{"name":"garage transform","address":"9 Quai Saint-Honoré","postal_code":"34232","ville":"Grenoble","phone":" +33 61 21 45 06","latitude":"50.4638","longitude":"6.8341"},{"name":"garage transition","address":"2374 Avenue d'Abbeville","postal_code":"30234","ville":"Pessac","phone":" +33 56 41 17 47","latitude":"49.4919","longitude":"1.8157"},{"name":"garage strategize","address":"35 Rue de la Bûcherie","postal_code":"48930","ville":"Ajaccio","phone":" +33 53 54 95 75","latitude":"48.4423","longitude":"-0.6113"},{"name":"garage facilitate","address":"8 Voie des Rosiers","postal_code":"82214","ville":"Limoges","phone":" +33 41 39 71 09","latitude":"47.1520","longitude":"0.1403"},{"name":"garage target","address":"49 Impasse Molière","postal_code":"92581","ville":"Chambéry","phone":" +33 90 08 65 57","latitude":"51.2651","longitude":"2.4437"},{"name":"garage enable","address":"3172 Voie Molière","postal_code":"35006","ville":"Toulouse","phone":" +33 28 77 27 24","latitude":"46.4081","longitude":"3.8691"},{"name":"garage expedite","address":"665 Rue Molière","postal_code":"80076","ville":"Aubervilliers","phone":" +33 89 74 52 33","latitude":"50.2523","longitude":"2.2618"},{"name":"garage target","address":"8 Quai Saint-Jacques","postal_code":"46507","ville":"Saint-Paul","phone":" +33 01 67 16 96","latitude":"47.3940","longitude":"1.2427"},{"name":"garage incubate","address":"1 Boulevard Pierre Charron","postal_code":"30522","ville":"Mulhouse","phone":" +33 31 41 49 74","latitude":"49.5502","longitude":"1.5572"},{"name":"garage embrace","address":"0 Place de Rivoli","postal_code":"09185","ville":"Saint-Denis","phone":" +33 12 66 27 31","latitude":"51.1480","longitude":"1.9123"},{"name":"garage seize","address":"20 Allée de la Chaussée-d'Antin","postal_code":"37676","ville":"Pessac","phone":" +33 89 70 92 19","latitude":"45.6157","longitude":"-1.8917"},{"name":"garage grow","address":"6 Voie de Provence","postal_code":"20579","ville":"Saint-Paul","phone":" +33 00 13 24 96","latitude":"53.3104","longitude":"3.5232"},{"name":"garage revolutionize","address":"0 Passage de Caumartin","postal_code":"22537","ville":"Tours","phone":" +33 76 03 43 64","latitude":"48.6989","longitude":"2.3838"},{"name":"garage morph","address":"64 Avenue Royale","postal_code":"56292","ville":"Lorient","phone":" +33 99 07 16 76","latitude":"45.9561","longitude":"6.1433"},{"name":"garage innovate","address":"7 Passage de Paris","postal_code":"29472","ville":"Toulouse","phone":" +33 09 91 88 81","latitude":"53.1965","longitude":"2.0569"},{"name":"garage whiteboard","address":"6905 Passage des Rosiers","postal_code":"82299","ville":"Clichy","phone":" +33 68 66 43 10","latitude":"49.0572","longitude":"3.8530"},{"name":"garage empower","address":"40 Allée Vaneau","postal_code":"25115","ville":"Drancy","phone":" +33 73 77 33 58","latitude":"46.3910","longitude":"0.1775"},{"name":"garage extend","address":"219 Impasse des Rosiers","postal_code":"52393","ville":"Strasbourg","phone":" +33 91 18 95 92","latitude":"49.5262","longitude":"3.9200"},{"name":"garage strategize","address":"10 Boulevard Lepic","postal_code":"08833","ville":"Villeurbanne","phone":" +33 32 26 81 38","latitude":"46.1871","longitude":"6.4850"},{"name":"garage scale","address":"55 Avenue Saint-Jacques","postal_code":"89614","ville":"Toulouse","phone":" +33 79 54 79 95","latitude":"51.1013","longitude":"3.2599"},{"name":"garage scale","address":"5433 Impasse de Vaugirard","postal_code":"67564","ville":"Aix-en-Provence","phone":" +33 68 21 75 28","latitude":"47.1633","longitude":"2.8697"},{"name":"garage whiteboard","address":"7 Allée de la Victoire","postal_code":"73780","ville":"Lille","phone":" +33 61 97 36 48","latitude":"44.9465","longitude":"2.5410"},{"name":"garage monetize","address":"9 Allée Royale","postal_code":"49547","ville":"Toulon","phone":" +33 02 93 69 32","latitude":"43.9023","longitude":"0.7240"},{"name":"garage mesh","address":"1970 Passage de l'Odéon","postal_code":"45414","ville":"Montpellier","phone":" +33 63 27 65 10","latitude":"53.2226","longitude":"4.3339"},{"name":"garage grow","address":"9843 Voie de Seine","postal_code":"74983","ville":"Drancy","phone":" +33 86 30 83 84","latitude":"50.0648","longitude":"3.5132"},{"name":"garage engineer","address":"24 Impasse de la Ferronnerie","postal_code":"37721","ville":"Le Tampon","phone":" +33 17 18 50 97","latitude":"48.2929","longitude":"3.4386"},{"name":"garage productize","address":"1 Voie d'Abbeville","postal_code":"20250","ville":"Nantes","phone":" +33 05 40 34 49","latitude":"49.7665","longitude":"0.5953"},{"name":"garage engage","address":"452 Avenue de la Chaussée-d'Antin","postal_code":"89145","ville":"Boulogne-Billancourt","phone":" +33 47 85 48 75","latitude":"49.0778","longitude":"5.0390"},{"name":"garage deploy","address":"323 Quai Molière","postal_code":"16375","ville":"Colombes","phone":" +33 45 03 09 40","latitude":"48.3397","longitude":"2.4379"},{"name":"garage deploy","address":"90 Place de la Bûcherie","postal_code":"42887","ville":"Vitry-sur-Seine","phone":" +33 41 23 12 60","latitude":"52.8339","longitude":"3.2777"},{"name":"garage transform","address":"61 Place Saint-Séverin","postal_code":"85654","ville":"Saint-Pierre","phone":" +33 09 80 99 61","latitude":"45.6793","longitude":"3.0032"},{"name":"garage seize","address":"68 Passage Saint-Bernard","postal_code":"99402","ville":"Saint-Quentin","phone":" +33 36 83 09 09","latitude":"48.7316","longitude":"1.9276"},{"name":"garage facilitate","address":"8 Place Saint-Denis","postal_code":"66001","ville":"Villejuif","phone":" +33 91 16 68 28","latitude":"48.8737","longitude":"6.8694"},{"name":"garage architect","address":"7 Place Saint-Denis","postal_code":"08122","ville":"Fort-de-France","phone":" +33 55 52 62 03","latitude":"47.3970","longitude":"6.7344"},{"name":"garage strategize","address":"06 Quai Vaneau","postal_code":"18367","ville":"La Seyne-sur-Mer","phone":" +33 84 76 87 33","latitude":"48.3341","longitude":"5.8925"},{"name":"garage syndicate","address":"1 Boulevard de l'Odéon","postal_code":"32940","ville":"Villejuif","phone":" +33 99 55 45 66","latitude":"51.0793","longitude":"1.0453"},{"name":"garage orchestrate","address":"451 Avenue Bonaparte","postal_code":"85158","ville":"Champigny-sur-Marne","phone":" +33 27 69 86 64","latitude":"49.2697","longitude":"4.9760"},{"name":"garage revolutionize","address":"0 Boulevard Dauphine","postal_code":"54704","ville":"Villeurbanne","phone":" +33 77 05 41 18","latitude":"48.3183","longitude":"2.3684"},{"name":"garage transition","address":"5 Place de Caumartin","postal_code":"65154","ville":"Avignon","phone":" +33 30 06 03 74","latitude":"48.3129","longitude":"-2.1994"},{"name":"garage engineer","address":"12 Impasse du Dahomey","postal_code":"90543","ville":"Aix-en-Provence","phone":" +33 01 51 07 58","latitude":"44.8353","longitude":"2.4436"},{"name":"garage unleash","address":"79 Quai Du Sommerard","postal_code":"14958","ville":"Dijon","phone":" +33 65 80 66 45","latitude":"47.6620","longitude":"-1.9886"},{"name":"garage enhance","address":"28 Avenue d'Assas","postal_code":"51058","ville":"Orléans","phone":" +33 22 17 77 32","latitude":"49.2976","longitude":"0.2237"},{"name":"garage synthesize","address":"884 Place des Lombards","postal_code":"54450","ville":"Clermont-Ferrand","phone":" +33 40 40 62 18","latitude":"47.2767","longitude":"-1.2662"},{"name":"garage redefine","address":"43 Impasse des Francs-Bourgeois","postal_code":"02996","ville":"Drancy","phone":" +33 29 50 43 82","latitude":"48.8608","longitude":"3.4242"},{"name":"garage implement","address":"6211 Voie Saint-Dominique","postal_code":"87258","ville":"Clichy","phone":" +33 52 28 74 46","latitude":"47.5623","longitude":"0.7508"},{"name":"garage exploit","address":"2550 Boulevard Oberkampf","postal_code":"22382","ville":"Antony","phone":" +33 12 94 69 60","latitude":"46.2557","longitude":"0.5867"},{"name":"garage incubate","address":"10 Voie d'Argenteuil","postal_code":"05651","ville":"Drancy","phone":" +33 38 23 67 08","latitude":"47.0900","longitude":"0.6548"},{"name":"garage enhance","address":"1995 Rue de la Huchette","postal_code":"07407","ville":"Clichy","phone":" +33 94 32 12 59","latitude":"49.0697","longitude":"-0.6709"},{"name":"garage generate","address":"1 Boulevard Pierre Charron","postal_code":"94600","ville":"Avignon","phone":" +33 73 62 77 89","latitude":"50.3018","longitude":"3.3659"},{"name":"garage engage","address":"8682 Impasse Saint-Honoré","postal_code":"74930","ville":"Saint-Paul","phone":" +33 25 13 53 77","latitude":"46.4723","longitude":"-1.8113"},{"name":"garage deliver","address":"2 Impasse Mouffetard","postal_code":"77253","ville":"Ivry-sur-Seine","phone":" +33 51 21 35 43","latitude":"48.6641","longitude":"5.3899"},{"name":"garage integrate","address":"862 Avenue Adolphe Mille","postal_code":"22990","ville":"Angers","phone":" +33 46 30 91 42","latitude":"48.9668","longitude":"4.6848"},{"name":"garage recontextualize","address":"958 Place Vaneau","postal_code":"45558","ville":"Villejuif","phone":" +33 30 77 26 02","latitude":"49.8828","longitude":"-0.8761"},{"name":"garage engineer","address":"4843 Quai Delesseux","postal_code":"43288","ville":"Nancy","phone":" +33 85 52 93 13","latitude":"49.1045","longitude":"2.7000"},{"name":"garage leverage","address":"03 Avenue d'Assas","postal_code":"59022","ville":"Aix-en-Provence","phone":" +33 11 67 94 54","latitude":"48.0679","longitude":"4.8762"},{"name":"garage deliver","address":"6771 Impasse Zadkine","postal_code":"05190","ville":"Créteil","phone":" +33 12 68 29 49","latitude":"45.6426","longitude":"3.4889"},{"name":"garage deploy","address":"6275 Voie Oberkampf","postal_code":"55899","ville":"Chambéry","phone":" +33 75 26 60 96","latitude":"48.8010","longitude":"1.7651"},{"name":"garage maximize","address":"15 Place Marcadet","postal_code":"78512","ville":"Saint-Quentin","phone":" +33 16 41 96 54","latitude":"48.4587","longitude":"2.5039"},{"name":"garage deliver","address":"1 Boulevard des Saussaies","postal_code":"74750","ville":"Avignon","phone":" +33 04 87 80 34","latitude":"46.6909","longitude":"0.5831"},{"name":"garage morph","address":"18 Rue de Tilsitt","postal_code":"52194","ville":"Boulogne-Billancourt","phone":" +33 70 75 18 81","latitude":"49.7899","longitude":"5.9895"},{"name":"garage iterate","address":"8 Allée Saint-Séverin","postal_code":"21339","ville":"Lille","phone":" +33 03 16 45 08","latitude":"45.3170","longitude":"1.9610"},{"name":"garage syndicate","address":"55 Impasse Marcadet","postal_code":"04507","ville":"Noisy-le-Grand","phone":" +33 85 32 17 69","latitude":"50.8686","longitude":"1.9673"},{"name":"garage visualize","address":"8030 Passage Saint-Jacques","postal_code":"71323","ville":"Saint-Denis","phone":" +33 28 83 38 48","latitude":"46.4223","longitude":"5.4645"},{"name":"garage drive","address":"7 Quai Zadkine","postal_code":"07954","ville":"Antibes","phone":" +33 41 54 92 52","latitude":"45.0365","longitude":"3.7613"},{"name":"garage revolutionize","address":"68 Passage Lepic","postal_code":"69846","ville":"Mérignac","phone":" +33 91 20 69 45","latitude":"50.8391","longitude":"2.5854"},{"name":"garage unleash","address":"904 Boulevard de la Bûcherie","postal_code":"97181","ville":"Levallois-Perret","phone":" +33 26 48 63 79","latitude":"48.7732","longitude":"4.5272"},{"name":"garage redefine","address":"2 Voie Saint-Jacques","postal_code":"48422","ville":"Clermont-Ferrand","phone":" +33 43 13 13 60","latitude":"49.7508","longitude":"1.9658"},{"name":"garage transform","address":"977 Impasse de la Harpe","postal_code":"12761","ville":"Le Tampon","phone":" +33 82 26 42 16","latitude":"48.2451","longitude":"0.5375"},{"name":"garage expedite","address":"1582 Passage Molière","postal_code":"27072","ville":"Clichy","phone":" +33 69 86 66 55","latitude":"50.6315","longitude":"-1.7956"},{"name":"garage reintermediate","address":"82 Impasse d'Orsel","postal_code":"58854","ville":"Nantes","phone":" +33 95 17 00 58","latitude":"49.4612","longitude":"-0.9303"},{"name":"garage empower","address":"04 Rue du Faubourg-Saint-Denis","postal_code":"87406","ville":"Nancy","phone":" +33 94 41 16 51","latitude":"50.6639","longitude":"1.3290"},{"name":"garage productize","address":"1 Passage Lepic","postal_code":"81073","ville":"Clermont-Ferrand","phone":" +33 57 64 69 94","latitude":"46.5771","longitude":"2.4895"},{"name":"garage expedite","address":"0 Impasse Adolphe Mille","postal_code":"95159","ville":"La Rochelle","phone":" +33 13 69 28 12","latitude":"47.0872","longitude":"0.0081"},{"name":"garage envisioneer","address":"207 Rue Pastourelle","postal_code":"70960","ville":"Montpellier","phone":" +33 14 67 06 78","latitude":"52.9091","longitude":"1.0457"},{"name":"garage utilize","address":"2 Rue Mouffetard","postal_code":"25087","ville":"Boulogne-Billancourt","phone":" +33 21 70 93 21","latitude":"51.8617","longitude":"2.0762"},{"name":"garage evolve","address":"04 Voie Delesseux","postal_code":"20831","ville":"Béziers","phone":" +33 65 30 26 52","latitude":"49.3236","longitude":"6.9234"},{"name":"garage synergize","address":"5 Voie de Paris","postal_code":"88553","ville":"Cergy","phone":" +33 31 55 05 82","latitude":"48.6982","longitude":"3.5972"},{"name":"garage optimize","address":"77 Place de Paris","postal_code":"19684","ville":"Ivry-sur-Seine","phone":" +33 57 96 12 04","latitude":"45.6628","longitude":"2.0913"},{"name":"garage benchmark","address":"3 Rue Marcadet","postal_code":"05045","ville":"Champigny-sur-Marne","phone":" +33 24 47 35 82","latitude":"49.9796","longitude":"-0.6484"},{"name":"garage visualize","address":"9 Passage de la Victoire","postal_code":"26221","ville":"Rouen","phone":" +33 53 02 92 81","latitude":"46.8742","longitude":"2.2928"},{"name":"garage visualize","address":"271 Allée Royale","postal_code":"86064","ville":"Dijon","phone":" +33 99 16 38 90","latitude":"47.6251","longitude":"6.4042"},{"name":"garage monetize","address":"0 Place de Tilsitt","postal_code":"11541","ville":"Limoges","phone":" +33 25 11 35 93","latitude":"49.1161","longitude":"-0.7644"},{"name":"garage exploit","address":"7931 Impasse d'Alésia","postal_code":"68404","ville":"Asnières-sur-Seine","phone":" +33 21 82 31 87","latitude":"51.3743","longitude":"5.3900"},{"name":"garage visualize","address":"1 Rue Lepic","postal_code":"73267","ville":"Asnières-sur-Seine","phone":" +33 13 02 79 49","latitude":"51.5695","longitude":"4.5258"},{"name":"garage iterate","address":"2468 Passage Saint-Séverin","postal_code":"42826","ville":"Saint-Paul","phone":" +33 65 58 81 07","latitude":"50.6212","longitude":"0.9314"},{"name":"garage repurpose","address":"0 Boulevard Vaneau","postal_code":"17926","ville":"Fort-de-France","phone":" +33 08 54 37 55","latitude":"49.0707","longitude":"2.2895"},{"name":"garage optimize","address":"6 Impasse Saint-Bernard","postal_code":"50513","ville":"Le Mans","phone":" +33 06 41 04 05","latitude":"49.7149","longitude":"1.9048"},{"name":"garage e-enable","address":"74 Voie du Faubourg-Saint-Denis","postal_code":"22712","ville":"Rouen","phone":" +33 31 75 19 38","latitude":"53.1312","longitude":"5.7707"},{"name":"garage expedite","address":"5 Passage de l'Abbaye","postal_code":"25207","ville":"Montpellier","phone":" +33 03 90 03 68","latitude":"50.5820","longitude":"-0.6022"},{"name":"garage deploy","address":"7 Boulevard Laffitte","postal_code":"41064","ville":"Angers","phone":" +33 05 90 31 96","latitude":"50.0052","longitude":"5.8549"},{"name":"garage scale","address":"77 Passage de Caumartin","postal_code":"28351","ville":"Villejuif","phone":" +33 43 06 17 35","latitude":"48.3733","longitude":"5.0120"},{"name":"garage visualize","address":"88 Impasse Charlemagne","postal_code":"26349","ville":"Le Mans","phone":" +33 76 04 02 89","latitude":"48.1872","longitude":"1.2392"},{"name":"garage matrix","address":"457 Passage du Faubourg Saint-Honoré","postal_code":"15372","ville":"Villeneuve-d'Ascq","phone":" +33 10 41 82 40","latitude":"51.0815","longitude":"5.7154"},{"name":"garage utilize","address":"476 Avenue de Montmorency","postal_code":"60185","ville":"Lorient","phone":" +33 50 57 25 45","latitude":"47.8972","longitude":"1.8651"},{"name":"garage syndicate","address":"22 Impasse d'Abbeville","postal_code":"68474","ville":"Vénissieux","phone":" +33 88 49 68 16","latitude":"46.6578","longitude":"1.4795"},{"name":"garage extend","address":"016 Impasse d'Argenteuil","postal_code":"70723","ville":"Le Tampon","phone":" +33 35 24 07 95","latitude":"45.5961","longitude":"4.5133"},{"name":"garage benchmark","address":"1442 Quai Oberkampf","postal_code":"09769","ville":"Vitry-sur-Seine","phone":" +33 88 48 88 68","latitude":"48.1338","longitude":"0.2466"},{"name":"garage embrace","address":"11 Boulevard de la Harpe","postal_code":"79455","ville":"Reims","phone":" +33 67 32 04 38","latitude":"45.4909","longitude":"-1.7179"},{"name":"garage maximize","address":"95 Place Laffitte","postal_code":"40802","ville":"Villeurbanne","phone":" +33 59 57 93 47","latitude":"49.1476","longitude":"1.6303"},{"name":"garage drive","address":"32 Passage du Havre","postal_code":"62772","ville":"Tourcoing","phone":" +33 31 50 85 68","latitude":"50.8179","longitude":"2.6868"},{"name":"garage integrate","address":"28 Avenue de Tilsitt","postal_code":"29749","ville":"Aulnay-sous-Bois","phone":" +33 60 61 53 75","latitude":"45.1945","longitude":"1.8824"},{"name":"garage expedite","address":"2 Place du Faubourg-Saint-Denis","postal_code":"61316","ville":"Aubervilliers","phone":" +33 39 23 01 06","latitude":"53.8252","longitude":"2.1906"},{"name":"garage leverage","address":"5972 Boulevard Montorgueil","postal_code":"65361","ville":"Saint-Maur-des-Fossés","phone":" +33 88 50 91 06","latitude":"46.1384","longitude":"3.3335"},{"name":"garage embrace","address":"34 Quai de Vaugirard","postal_code":"46024","ville":"Lyon","phone":" +33 90 68 42 91","latitude":"47.7249","longitude":"5.9654"},{"name":"garage transform","address":"5246 Avenue des Francs-Bourgeois","postal_code":"65202","ville":"Pessac","phone":" +33 84 28 00 17","latitude":"48.0625","longitude":"4.0215"},{"name":"garage architect","address":"241 Place du Bac","postal_code":"73580","ville":"Colombes","phone":" +33 83 66 18 31","latitude":"51.2550","longitude":"1.1097"},{"name":"garage visualize","address":"34 Passage Saint-Bernard","postal_code":"15539","ville":"Avignon","phone":" +33 76 54 47 05","latitude":"48.8559","longitude":"5.4053"},{"name":"garage brand","address":"3 Passage Du Sommerard","postal_code":"74260","ville":"Mulhouse","phone":" +33 57 97 12 96","latitude":"46.4905","longitude":"4.9135"},{"name":"garage mesh","address":"191 Place Adolphe Mille","postal_code":"36771","ville":"Ivry-sur-Seine","phone":" +33 79 00 37 55","latitude":"52.5986","longitude":"1.4253"},{"name":"garage optimize","address":"51 Boulevard de l'Abbaye","postal_code":"86581","ville":"Champigny-sur-Marne","phone":" +33 95 78 12 23","latitude":"47.5209","longitude":"0.7640"},{"name":"garage reinvent","address":"55 Quai La Boétie","postal_code":"70637","ville":"Béziers","phone":" +33 87 06 11 43","latitude":"48.6804","longitude":"1.8318"},{"name":"garage redefine","address":"2 Voie du Havre","postal_code":"23443","ville":"Montreuil","phone":" +33 79 85 76 15","latitude":"50.4308","longitude":"2.8843"},{"name":"garage maximize","address":"1510 Boulevard d'Alésia","postal_code":"97414","ville":"Paris","phone":" +33 58 40 85 77","latitude":"48.0264","longitude":"1.6893"},{"name":"garage cultivate","address":"865 Boulevard de Tilsitt","postal_code":"90001","ville":"Besançon","phone":" +33 41 91 88 63","latitude":"46.9950","longitude":"2.4842"},{"name":"garage syndicate","address":"81 Boulevard Du Sommerard","postal_code":"82702","ville":"Brest","phone":" +33 36 66 80 25","latitude":"48.9178","longitude":"2.2088"},{"name":"garage empower","address":"26 Place d'Orsel","postal_code":"17942","ville":"Rennes","phone":" +33 97 70 90 63","latitude":"44.3311","longitude":"1.5774"},{"name":"garage enable","address":"5 Place Molière","postal_code":"05583","ville":"Cayenne","phone":" +33 96 50 47 87","latitude":"49.7407","longitude":"5.7310"},{"name":"garage deliver","address":"91 Voie Molière","postal_code":"30655","ville":"Le Mans","phone":" +33 52 31 58 52","latitude":"46.1155","longitude":"0.9525"},{"name":"garage incentivize","address":"8 Place de Montmorency","postal_code":"16227","ville":"Levallois-Perret","phone":" +33 78 32 49 24","latitude":"46.1105","longitude":"1.3574"},{"name":"garage deploy","address":"437 Rue de Caumartin","postal_code":"42046","ville":"Nancy","phone":" +33 27 00 93 74","latitude":"50.7030","longitude":"1.8037"},{"name":"garage drive","address":"361 Place Joubert","postal_code":"04955","ville":"Aubervilliers","phone":" +33 75 88 80 34","latitude":"50.1781","longitude":"-0.6307"},{"name":"garage iterate","address":"78 Avenue Saint-Denis","postal_code":"74302","ville":"Troyes","phone":" +33 41 23 29 34","latitude":"45.9230","longitude":"3.8466"},{"name":"garage evolve","address":"1527 Voie Montorgueil","postal_code":"18123","ville":"Rennes","phone":" +33 54 72 07 04","latitude":"49.8816","longitude":"4.6849"},{"name":"garage visualize","address":"661 Avenue Vaneau","postal_code":"28189","ville":"Argenteuil","phone":" +33 83 25 28 35","latitude":"52.7138","longitude":"2.1721"},{"name":"garage incentivize","address":"811 Quai d'Argenteuil","postal_code":"06536","ville":"Champigny-sur-Marne","phone":" +33 26 54 51 28","latitude":"50.6021","longitude":"3.9319"},{"name":"garage redefine","address":"4 Allée de Solférino","postal_code":"01389","ville":"Levallois-Perret","phone":" +33 65 31 13 47","latitude":"49.3003","longitude":"4.4569"},{"name":"garage visualize","address":"8655 Allée Dauphine","postal_code":"75316","ville":"Montauban","phone":" +33 89 63 68 08","latitude":"46.1079","longitude":"2.1361"},{"name":"garage iterate","address":"2 Voie Dauphine","postal_code":"11583","ville":"Pessac","phone":" +33 58 11 12 77","latitude":"45.6324","longitude":"4.8057"},{"name":"garage architect","address":"47 Voie d'Abbeville","postal_code":"11962","ville":"Nanterre","phone":" +33 92 33 31 15","latitude":"48.7333","longitude":"2.3818"},{"name":"garage disintermediate","address":"5 Boulevard de Vaugirard","postal_code":"84851","ville":"Sarcelles","phone":" +33 45 30 98 22","latitude":"48.7241","longitude":"3.4109"},{"name":"garage synergize","address":"6395 Rue des Francs-Bourgeois","postal_code":"88163","ville":"Lorient","phone":" +33 37 80 74 63","latitude":"49.2325","longitude":"3.7020"},{"name":"garage repurpose","address":"47 Passage de Nesle","postal_code":"17427","ville":"Issy-les-Moulineaux","phone":" +33 98 42 15 49","latitude":"44.0258","longitude":"6.1049"},{"name":"garage revolutionize","address":"9090 Rue de la Paix","postal_code":"96671","ville":"Limoges","phone":" +33 81 74 59 87","latitude":"50.2307","longitude":"0.3267"},{"name":"garage enable","address":"201 Impasse Zadkine","postal_code":"46669","ville":"Reims","phone":" +33 57 15 61 69","latitude":"48.1932","longitude":"1.2038"},{"name":"garage optimize","address":"8145 Quai Vaneau","postal_code":"77021","ville":"Aix-en-Provence","phone":" +33 42 63 90 27","latitude":"46.7745","longitude":"1.3178"},{"name":"garage matrix","address":"577 Rue de Presbourg","postal_code":"59116","ville":"Montreuil","phone":" +33 91 10 26 72","latitude":"44.0966","longitude":"2.2412"},{"name":"garage drive","address":"604 Allée de Montmorency","postal_code":"06499","ville":"Dijon","phone":" +33 33 73 33 52","latitude":"50.5209","longitude":"6.1302"},{"name":"garage iterate","address":"6672 Impasse Bonaparte","postal_code":"35678","ville":"Saint-Paul","phone":" +33 02 14 63 14","latitude":"52.1284","longitude":"-0.9633"},{"name":"garage streamline","address":"5 Impasse de Presbourg","postal_code":"24308","ville":"Lorient","phone":" +33 16 44 36 38","latitude":"47.0342","longitude":"0.5072"},{"name":"garage leverage","address":"2 Place Pastourelle","postal_code":"53124","ville":"Valence","phone":" +33 02 32 18 46","latitude":"48.9828","longitude":"4.4635"},{"name":"garage leverage","address":"5 Place de Presbourg","postal_code":"22917","ville":"Colombes","phone":" +33 18 96 16 69","latitude":"48.5957","longitude":"1.1664"},{"name":"garage transform","address":"719 Voie du Faubourg Saint-Honoré","postal_code":"17288","ville":"Dunkerque","phone":" +33 92 03 95 81","latitude":"48.2638","longitude":"1.3940"},{"name":"garage transform","address":"58 Quai de la Bûcherie","postal_code":"19536","ville":"Villeurbanne","phone":" +33 68 60 93 36","latitude":"46.6394","longitude":"0.9349"},{"name":"garage expedite","address":"0169 Allée Montorgueil","postal_code":"02492","ville":"Dunkerque","phone":" +33 02 09 68 83","latitude":"51.2973","longitude":"0.8089"},{"name":"garage integrate","address":"1968 Rue des Lombards","postal_code":"60556","ville":"Tours","phone":" +33 68 87 95 16","latitude":"50.3521","longitude":"0.6544"},{"name":"garage expedite","address":"747 Quai de Rivoli","postal_code":"80936","ville":"Reims","phone":" +33 36 25 13 65","latitude":"44.2710","longitude":"1.5898"},{"name":"garage evolve","address":"6 Passage des Lombards","postal_code":"77969","ville":"Nîmes","phone":" +33 11 73 25 22","latitude":"48.8954","longitude":"2.7828"},{"name":"garage synergize","address":"0962 Place des Panoramas","postal_code":"95361","ville":"Drancy","phone":" +33 23 24 77 44","latitude":"51.9851","longitude":"4.5012"},{"name":"garage extend","address":"0 Boulevard de Vaugirard","postal_code":"30710","ville":"Neuilly-sur-Seine","phone":" +33 60 68 60 98","latitude":"46.7243","longitude":"2.0255"},{"name":"garage redefine","address":"5516 Quai Oberkampf","postal_code":"35838","ville":"Argenteuil","phone":" +33 86 31 07 09","latitude":"46.8106","longitude":"5.8833"},{"name":"garage transform","address":"055 Boulevard Saint-Jacques","postal_code":"39431","ville":"Vitry-sur-Seine","phone":" +33 61 26 53 40","latitude":"52.2384","longitude":"6.5990"},{"name":"garage revolutionize","address":"4 Impasse La Boétie","postal_code":"03921","ville":"Toulon","phone":" +33 62 75 54 61","latitude":"46.3714","longitude":"3.1619"},{"name":"garage syndicate","address":"4 Quai Saint-Dominique","postal_code":"66459","ville":"Antibes","phone":" +33 91 71 02 73","latitude":"44.8959","longitude":"3.8413"},{"name":"garage brand","address":"869 Avenue Dauphine","postal_code":"63617","ville":"Saint-Étienne","phone":" +33 07 87 00 84","latitude":"50.4447","longitude":"0.0271"},{"name":"garage mesh","address":"9 Voie Charlemagne","postal_code":"52688","ville":"Marseille","phone":" +33 42 14 70 37","latitude":"48.7325","longitude":"2.7473"},{"name":"garage deliver","address":"86 Rue de Paris","postal_code":"32819","ville":"Brest","phone":" +33 83 21 00 69","latitude":"49.2054","longitude":"5.6074"},{"name":"garage incentivize","address":"904 Place de Solférino","postal_code":"28415","ville":"Boulogne-Billancourt","phone":" +33 53 97 66 67","latitude":"47.3212","longitude":"-0.5713"},{"name":"garage drive","address":"1 Impasse Molière","postal_code":"81536","ville":"Villejuif","phone":" +33 83 80 68 36","latitude":"50.5998","longitude":"3.6589"},{"name":"garage enable","address":"351 Boulevard de Paris","postal_code":"79832","ville":"Saint-Denis","phone":" +33 84 31 59 86","latitude":"48.9699","longitude":"2.5481"},{"name":"garage aggregate","address":"5834 Quai Zadkine","postal_code":"15926","ville":"Le Tampon","phone":" +33 39 03 56 96","latitude":"48.0331","longitude":"3.1538"},{"name":"garage empower","address":"3 Passage Saint-Jacques","postal_code":"93598","ville":"Cholet","phone":" +33 87 23 02 19","latitude":"48.7194","longitude":"1.3275"},{"name":"garage iterate","address":"9437 Passage de Vaugirard","postal_code":"27695","ville":"Cergy","phone":" +33 83 68 45 57","latitude":"48.2435","longitude":"4.0868"},{"name":"garage incubate","address":"3 Impasse Du Sommerard","postal_code":"01394","ville":"Troyes","phone":" +33 84 93 40 04","latitude":"51.2524","longitude":"4.0529"},{"name":"garage synthesize","address":"8 Quai de Richelieu","postal_code":"87810","ville":"Chambéry","phone":" +33 82 55 08 30","latitude":"50.6447","longitude":"-1.4064"},{"name":"garage revolutionize","address":"799 Passage Oberkampf","postal_code":"03684","ville":"Nîmes","phone":" +33 48 64 56 26","latitude":"48.5788","longitude":"2.1687"},{"name":"garage synthesize","address":"939 Rue d'Abbeville","postal_code":"65379","ville":"Ivry-sur-Seine","phone":" +33 76 06 72 70","latitude":"49.0613","longitude":"2.1030"},{"name":"garage utilize","address":"90 Impasse Adolphe Mille","postal_code":"14850","ville":"Orléans","phone":" +33 17 26 24 07","latitude":"48.2062","longitude":"-2.6039"},{"name":"garage strategize","address":"2744 Boulevard de la Ferronnerie","postal_code":"99619","ville":"Le Mans","phone":" +33 06 86 75 82","latitude":"47.5022","longitude":"2.1363"},{"name":"garage optimize","address":"4 Place Joubert","postal_code":"68705","ville":"Troyes","phone":" +33 97 50 74 49","latitude":"49.7857","longitude":"7.5014"},{"name":"garage transition","address":"968 Passage de la Pompe","postal_code":"78071","ville":"Le Tampon","phone":" +33 88 01 82 59","latitude":"48.9144","longitude":"0.5918"},{"name":"garage utilize","address":"7 Voie Lepic","postal_code":"94102","ville":"Rennes","phone":" +33 83 92 92 23","latitude":"47.6974","longitude":"2.3644"},{"name":"garage brand","address":"975 Allée de Solférino","postal_code":"47733","ville":"Grenoble","phone":" +33 39 70 85 62","latitude":"48.8565","longitude":"0.6116"},{"name":"garage iterate","address":"447 Allée Saint-Dominique","postal_code":"48575","ville":"La Rochelle","phone":" +33 16 30 58 85","latitude":"48.3312","longitude":"2.7833"},{"name":"garage expedite","address":"0 Allée de la Victoire","postal_code":"68696","ville":"Villeurbanne","phone":" +33 10 83 00 91","latitude":"48.7530","longitude":"1.9836"},{"name":"garage syndicate","address":"249 Rue Du Sommerard","postal_code":"33394","ville":"Courbevoie","phone":" +33 81 64 76 26","latitude":"44.0864","longitude":"1.3268"},{"name":"garage generate","address":"363 Avenue de Tilsitt","postal_code":"51584","ville":"Pessac","phone":" +33 23 63 43 02","latitude":"48.7269","longitude":"3.2837"},{"name":"garage synthesize","address":"2009 Allée Laffitte","postal_code":"22488","ville":"Angers","phone":" +33 43 35 64 25","latitude":"47.0249","longitude":"2.3973"},{"name":"garage iterate","address":"893 Avenue de l'Odéon","postal_code":"72197","ville":"Chambéry","phone":" +33 87 52 17 96","latitude":"49.4700","longitude":"2.9988"},{"name":"garage reinvent","address":"166 Passage du Bac","postal_code":"64709","ville":"Nancy","phone":" +33 93 73 31 23","latitude":"45.0676","longitude":"4.7831"},{"name":"garage architect","address":"9793 Rue d'Orsel","postal_code":"45587","ville":"Saint-Maur-des-Fossés","phone":" +33 30 48 20 25","latitude":"44.2381","longitude":"0.7381"},{"name":"garage visualize","address":"862 Voie des Panoramas","postal_code":"20986","ville":"Aubervilliers","phone":" +33 53 78 50 79","latitude":"49.3094","longitude":"1.1532"},{"name":"garage deliver","address":"2915 Avenue d'Alésia","postal_code":"89510","ville":"Saint-Étienne","phone":" +33 36 00 78 14","latitude":"45.6818","longitude":"3.7879"},{"name":"garage leverage","address":"77 Voie de la Bûcherie","postal_code":"77733","ville":"Saint-Nazaire","phone":" +33 99 51 47 76","latitude":"50.5492","longitude":"4.3784"},{"name":"garage iterate","address":"115 Avenue d'Abbeville","postal_code":"45973","ville":"Besançon","phone":" +33 33 00 00 57","latitude":"50.3015","longitude":"1.1137"},{"name":"garage syndicate","address":"5889 Place Pierre Charron","postal_code":"30287","ville":"Le Tampon","phone":" +33 85 33 71 43","latitude":"46.2190","longitude":"5.3276"},{"name":"garage revolutionize","address":"49 Place Saint-Séverin","postal_code":"60772","ville":"Argenteuil","phone":" +33 99 88 03 22","latitude":"49.6578","longitude":"6.8573"},{"name":"garage whiteboard","address":"5 Impasse des Rosiers","postal_code":"75261","ville":"Versailles","phone":" +33 36 99 79 23","latitude":"49.6224","longitude":"2.5402"},{"name":"garage extend","address":"8329 Voie de Paris","postal_code":"82811","ville":"Brest","phone":" +33 07 98 01 60","latitude":"44.6264","longitude":"-0.6090"},{"name":"garage grow","address":"4 Impasse Vaneau","postal_code":"37803","ville":"Orléans","phone":" +33 48 79 22 50","latitude":"47.9263","longitude":"5.7144"},{"name":"garage brand","address":"8 Boulevard de la Paix","postal_code":"82256","ville":"Nantes","phone":" +33 68 98 34 50","latitude":"46.3347","longitude":"1.8482"},{"name":"garage deliver","address":"697 Rue d'Orsel","postal_code":"61682","ville":"Valence","phone":" +33 53 65 15 88","latitude":"49.3143","longitude":"2.6429"},{"name":"garage implement","address":"42 Impasse Mouffetard","postal_code":"74540","ville":"Quimper","phone":" +33 35 83 89 68","latitude":"45.3581","longitude":"3.1024"},{"name":"garage leverage","address":"82 Place d'Alésia","postal_code":"14687","ville":"Antony","phone":" +33 37 67 56 58","latitude":"45.4302","longitude":"2.2436"},{"name":"garage reintermediate","address":"5 Allée de la Bûcherie","postal_code":"26875","ville":"Hyères","phone":" +33 87 48 24 62","latitude":"51.6622","longitude":"2.6682"},{"name":"garage synthesize","address":"73 Place du Faubourg-Saint-Denis","postal_code":"00286","ville":"La Rochelle","phone":" +33 33 22 22 30","latitude":"52.1624","longitude":"2.3925"},{"name":"garage incentivize","address":"9 Avenue des Saussaies","postal_code":"09248","ville":"Neuilly-sur-Seine","phone":" +33 41 67 61 97","latitude":"48.3116","longitude":"1.2968"},{"name":"garage engage","address":"484 Impasse Saint-Bernard","postal_code":"58066","ville":"Aubervilliers","phone":" +33 51 59 18 88","latitude":"52.5914","longitude":"3.2548"},{"name":"garage morph","address":"515 Allée Vaneau","postal_code":"77173","ville":"Chambéry","phone":" +33 30 34 06 79","latitude":"51.9368","longitude":"-0.5375"},{"name":"garage morph","address":"7 Avenue Pastourelle","postal_code":"06959","ville":"Quimper","phone":" +33 42 21 86 46","latitude":"48.3484","longitude":"3.2410"},{"name":"garage facilitate","address":"5 Boulevard de la Paix","postal_code":"98774","ville":"Saint-Étienne","phone":" +33 22 80 73 66","latitude":"47.4693","longitude":"3.9998"},{"name":"garage seize","address":"5315 Place Royale","postal_code":"29125","ville":"Avignon","phone":" +33 87 14 56 05","latitude":"49.8413","longitude":"1.1136"},{"name":"garage drive","address":"6 Boulevard Saint-Bernard","postal_code":"03103","ville":"Antony","phone":" +33 91 90 03 41","latitude":"47.0677","longitude":"-2.4621"},{"name":"garage morph","address":"7 Impasse de Provence","postal_code":"34422","ville":"Asnières-sur-Seine","phone":" +33 42 89 02 16","latitude":"48.8959","longitude":"4.1680"},{"name":"garage scale","address":"990 Place des Grands Augustins","postal_code":"44116","ville":"Vitry-sur-Seine","phone":" +33 14 44 55 16","latitude":"49.1796","longitude":"-1.1233"},{"name":"garage streamline","address":"9 Allée de Richelieu","postal_code":"53706","ville":"Hyères","phone":" +33 80 41 28 63","latitude":"45.1854","longitude":"0.1984"},{"name":"garage productize","address":"026 Quai Charlemagne","postal_code":"10468","ville":"Grenoble","phone":" +33 50 45 65 22","latitude":"51.8342","longitude":"2.5227"},{"name":"garage optimize","address":"85 Allée Vaneau","postal_code":"28928","ville":"Saint-Pierre","phone":" +33 04 88 25 96","latitude":"49.1694","longitude":"2.4940"},{"name":"garage utilize","address":"9915 Quai de la Huchette","postal_code":"16220","ville":"Asnières-sur-Seine","phone":" +33 51 53 55 50","latitude":"48.8375","longitude":"2.4752"},{"name":"garage incubate","address":"625 Quai Monsieur-le-Prince","postal_code":"10496","ville":"Troyes","phone":" +33 43 41 70 94","latitude":"50.5897","longitude":"1.3375"},{"name":"garage benchmark","address":"0853 Place de la Huchette","postal_code":"93689","ville":"Drancy","phone":" +33 42 11 21 74","latitude":"52.9201","longitude":"1.8766"},{"name":"garage transition","address":"0 Avenue d'Argenteuil","postal_code":"13143","ville":"Cergy","phone":" +33 54 94 55 02","latitude":"50.4703","longitude":"1.8409"},{"name":"garage extend","address":"40 Voie Molière","postal_code":"93319","ville":"Grenoble","phone":" +33 97 66 12 66","latitude":"48.7258","longitude":"0.6890"},{"name":"garage transform","address":"8351 Allée Laffitte","postal_code":"03285","ville":"Roubaix","phone":" +33 33 38 76 04","latitude":"46.0676","longitude":"3.3170"},{"name":"garage generate","address":"3 Allée Dauphine","postal_code":"04128","ville":"Versailles","phone":" +33 79 43 22 96","latitude":"46.1706","longitude":"2.8681"},{"name":"garage reintermediate","address":"438 Quai de Richelieu","postal_code":"46495","ville":"Noisy-le-Grand","phone":" +33 93 30 22 44","latitude":"49.5590","longitude":"2.5657"},{"name":"garage whiteboard","address":"49 Quai Monsieur-le-Prince","postal_code":"96947","ville":"Brest","phone":" +33 40 94 00 49","latitude":"48.8665","longitude":"-1.2967"},{"name":"garage repurpose","address":"7851 Rue Bonaparte","postal_code":"84280","ville":"Nice","phone":" +33 70 41 10 12","latitude":"49.4592","longitude":"-1.7362"},{"name":"garage evolve","address":"94 Rue Molière","postal_code":"27686","ville":"Caen","phone":" +33 56 95 61 50","latitude":"48.6221","longitude":"3.1092"},{"name":"garage disintermediate","address":"1 Rue des Grands Augustins","postal_code":"57061","ville":"Dunkerque","phone":" +33 59 02 36 59","latitude":"50.4923","longitude":"5.4419"},{"name":"garage orchestrate","address":"894 Boulevard d'Assas","postal_code":"39660","ville":"Nantes","phone":" +33 28 65 65 43","latitude":"50.7890","longitude":"-0.7813"},{"name":"garage repurpose","address":"098 Quai Adolphe Mille","postal_code":"94742","ville":"Pau","phone":" +33 49 04 03 18","latitude":"48.9289","longitude":"1.6448"},{"name":"garage e-enable","address":"136 Impasse de Montmorency","postal_code":"55058","ville":"Saint-Étienne","phone":" +33 91 64 56 01","latitude":"51.3822","longitude":"2.0677"},{"name":"garage syndicate","address":"8 Rue de Provence","postal_code":"61727","ville":"Montauban","phone":" +33 02 54 78 25","latitude":"52.6552","longitude":"1.9776"},{"name":"garage morph","address":"294 Boulevard de Richelieu","postal_code":"38502","ville":"Angers","phone":" +33 70 32 55 60","latitude":"49.6471","longitude":"0.5969"},{"name":"garage transform","address":"644 Voie de Caumartin","postal_code":"81683","ville":"Colmar","phone":" +33 62 96 91 61","latitude":"50.9363","longitude":"5.5810"},{"name":"garage scale","address":"60 Passage de la Harpe","postal_code":"79851","ville":"Sarcelles","phone":" +33 58 73 83 51","latitude":"48.7614","longitude":"5.1307"},{"name":"garage redefine","address":"69 Rue de la Ferronnerie","postal_code":"76450","ville":"Nancy","phone":" +33 88 45 31 75","latitude":"51.7173","longitude":"0.1038"},{"name":"garage streamline","address":"04 Quai Saint-Honoré","postal_code":"50366","ville":"Rennes","phone":" +33 92 54 02 39","latitude":"51.3424","longitude":"1.8023"},{"name":"garage synergize","address":"985 Place Monsieur-le-Prince","postal_code":"59282","ville":"Issy-les-Moulineaux","phone":" +33 87 54 33 79","latitude":"48.4747","longitude":"0.3977"},{"name":"garage monetize","address":"2454 Boulevard Saint-Séverin","postal_code":"32991","ville":"Reims","phone":" +33 12 48 73 10","latitude":"50.8814","longitude":"-0.2034"},{"name":"garage disintermediate","address":"9 Impasse d'Abbeville","postal_code":"83059","ville":"Hyères","phone":" +33 76 73 16 45","latitude":"47.9026","longitude":"6.5798"},{"name":"garage disintermediate","address":"0 Passage Saint-Dominique","postal_code":"42396","ville":"Cholet","phone":" +33 25 28 41 19","latitude":"52.5499","longitude":"2.1882"},{"name":"garage scale","address":"99 Impasse Laffitte","postal_code":"53917","ville":"Cayenne","phone":" +33 78 07 34 67","latitude":"47.9974","longitude":"1.0326"},{"name":"garage repurpose","address":"9 Voie Du Sommerard","postal_code":"25572","ville":"Cayenne","phone":" +33 64 70 08 04","latitude":"48.4466","longitude":"-1.7640"},{"name":"garage whiteboard","address":"3 Avenue de la Huchette","postal_code":"59674","ville":"Caen","phone":" +33 92 11 06 87","latitude":"47.8985","longitude":"-0.9445"},{"name":"garage generate","address":"5 Quai Oberkampf","postal_code":"17247","ville":"Noisy-le-Grand","phone":" +33 31 59 80 57","latitude":"48.8710","longitude":"2.5115"},{"name":"garage drive","address":"073 Passage Charlemagne","postal_code":"34240","ville":"Issy-les-Moulineaux","phone":" +33 19 50 08 55","latitude":"48.7605","longitude":"2.2072"},{"name":"garage engage","address":"63 Place Royale","postal_code":"82752","ville":"Clermont-Ferrand","phone":" +33 18 86 87 37","latitude":"49.3473","longitude":"2.8747"},{"name":"garage implement","address":"101 Allée Mouffetard","postal_code":"62380","ville":"Nîmes","phone":" +33 22 55 03 55","latitude":"48.4127","longitude":"7.6077"},{"name":"garage monetize","address":"29 Impasse Pierre Charron","postal_code":"15842","ville":"Rueil-Malmaison","phone":" +33 35 08 53 47","latitude":"50.5239","longitude":"1.3427"},{"name":"garage reinvent","address":"60 Avenue Montorgueil","postal_code":"32981","ville":"Saint-Denis","phone":" +33 17 40 14 50","latitude":"47.8310","longitude":"3.9557"},{"name":"garage transition","address":"4 Quai Saint-Séverin","postal_code":"04413","ville":"Bourges","phone":" +33 77 82 84 09","latitude":"46.4827","longitude":"3.0885"},{"name":"garage deploy","address":"0 Avenue Du Sommerard","postal_code":"62247","ville":"Avignon","phone":" +33 29 43 43 60","latitude":"49.4110","longitude":"2.3858"},{"name":"garage matrix","address":"0 Impasse de la Paix","postal_code":"39959","ville":"Clichy","phone":" +33 90 36 75 74","latitude":"49.4211","longitude":"4.5255"},{"name":"garage mesh","address":"8475 Voie du Chat-qui-Pêche","postal_code":"33950","ville":"Rueil-Malmaison","phone":" +33 96 57 22 34","latitude":"46.9985","longitude":"0.3182"},{"name":"garage evolve","address":"11 Allée Saint-Jacques","postal_code":"84811","ville":"Noisy-le-Grand","phone":" +33 90 04 12 49","latitude":"52.0239","longitude":"2.8302"},{"name":"garage deliver","address":"27 Rue Saint-Bernard","postal_code":"10149","ville":"Saint-Nazaire","phone":" +33 80 39 25 66","latitude":"47.6900","longitude":"-1.8909"},{"name":"garage morph","address":"881 Voie Adolphe Mille","postal_code":"93665","ville":"Courbevoie","phone":" +33 42 36 98 51","latitude":"51.4313","longitude":"2.9341"},{"name":"garage reinvent","address":"1 Rue Joubert","postal_code":"42735","ville":"Lyon","phone":" +33 55 74 36 25","latitude":"51.2217","longitude":"2.7795"},{"name":"garage benchmark","address":"7994 Passage d'Alésia","postal_code":"74541","ville":"Drancy","phone":" +33 04 59 10 55","latitude":"47.4267","longitude":"2.4894"},{"name":"garage cultivate","address":"0 Rue de la Ferronnerie","postal_code":"40405","ville":"Courbevoie","phone":" +33 31 09 59 22","latitude":"53.2174","longitude":"4.5837"},{"name":"garage innovate","address":"606 Impasse du Bac","postal_code":"59950","ville":"Troyes","phone":" +33 64 36 83 17","latitude":"48.8498","longitude":"6.1381"},{"name":"garage transition","address":"9099 Impasse de la Ferronnerie","postal_code":"71672","ville":"Lyon","phone":" +33 53 09 03 79","latitude":"46.2290","longitude":"2.5801"},{"name":"garage exploit","address":"170 Boulevard Saint-Dominique","postal_code":"51502","ville":"Cergy","phone":" +33 97 27 46 61","latitude":"46.7937","longitude":"2.9053"},{"name":"garage aggregate","address":"53 Boulevard de Provence","postal_code":"61140","ville":"Saint-Paul","phone":" +33 23 69 22 92","latitude":"49.3260","longitude":"5.0197"},{"name":"garage syndicate","address":"1958 Place de l'Abbaye","postal_code":"07594","ville":"Saint-Quentin","phone":" +33 33 10 58 84","latitude":"50.1493","longitude":"1.8109"},{"name":"garage disintermediate","address":"2982 Allée d'Orsel","postal_code":"79018","ville":"Beauvais","phone":" +33 90 73 83 56","latitude":"47.8078","longitude":"2.8985"},{"name":"garage productize","address":"6658 Allée La Boétie","postal_code":"03152","ville":"Quimper","phone":" +33 28 84 69 41","latitude":"48.5690","longitude":"1.8863"},{"name":"garage disintermediate","address":"49 Allée de Nesle","postal_code":"85596","ville":"Les Abymes","phone":" +33 63 43 12 21","latitude":"50.4714","longitude":"2.7982"},{"name":"garage optimize","address":"4 Rue d'Assas","postal_code":"68568","ville":"Cayenne","phone":" +33 14 98 17 38","latitude":"48.5831","longitude":"2.1758"},{"name":"garage transform","address":"80 Impasse du Faubourg Saint-Honoré","postal_code":"26070","ville":"Drancy","phone":" +33 85 58 47 05","latitude":"50.9578","longitude":"-0.5874"},{"name":"garage cultivate","address":"5 Rue Joubert","postal_code":"68286","ville":"Cannes","phone":" +33 16 63 07 75","latitude":"51.1928","longitude":"5.4169"},{"name":"garage benchmark","address":"7824 Impasse de Provence","postal_code":"38702","ville":"Poitiers","phone":" +33 88 51 74 91","latitude":"46.3064","longitude":"7.6742"},{"name":"garage incubate","address":"410 Passage Monsieur-le-Prince","postal_code":"28673","ville":"Montreuil","phone":" +33 31 29 83 77","latitude":"50.1657","longitude":"1.6654"},{"name":"garage cultivate","address":"5176 Allée Du Sommerard","postal_code":"77440","ville":"Montpellier","phone":" +33 38 35 52 05","latitude":"49.4451","longitude":"2.7815"},{"name":"garage enable","address":"1 Rue du Chat-qui-Pêche","postal_code":"90847","ville":"Mulhouse","phone":" +33 61 12 45 68","latitude":"50.8525","longitude":"-0.7776"},{"name":"garage expedite","address":"6 Boulevard Lepic","postal_code":"11085","ville":"Besançon","phone":" +33 26 79 96 17","latitude":"51.2299","longitude":"2.0631"},{"name":"garage transform","address":"83 Boulevard des Rosiers","postal_code":"80982","ville":"Roubaix","phone":" +33 64 52 01 82","latitude":"49.5769","longitude":"2.4182"},{"name":"garage repurpose","address":"388 Place Bonaparte","postal_code":"71850","ville":"Villeneuve-d'Ascq","phone":" +33 48 52 92 84","latitude":"51.1447","longitude":"-1.6697"},{"name":"garage expedite","address":"5054 Allée de la Chaussée-d'Antin","postal_code":"79599","ville":"Calais","phone":" +33 68 83 38 42","latitude":"44.4532","longitude":"1.9220"},{"name":"garage whiteboard","address":"3 Allée d'Abbeville","postal_code":"05855","ville":"Hyères","phone":" +33 93 89 98 19","latitude":"48.4804","longitude":"-0.6418"},{"name":"garage aggregate","address":"4762 Avenue du Faubourg-Saint-Denis","postal_code":"36511","ville":"Neuilly-sur-Seine","phone":" +33 72 42 72 33","latitude":"50.0267","longitude":"-1.4899"},{"name":"garage e-enable","address":"9188 Quai Marcadet","postal_code":"60864","ville":"Rueil-Malmaison","phone":" +33 45 45 34 55","latitude":"45.1688","longitude":"-1.6901"},{"name":"garage reinvent","address":"26 Allée Saint-Jacques","postal_code":"49553","ville":"Créteil","phone":" +33 64 80 02 20","latitude":"50.8911","longitude":"4.2621"},{"name":"garage unleash","address":"6553 Rue des Rosiers","postal_code":"88186","ville":"Caen","phone":" +33 90 92 10 77","latitude":"48.5592","longitude":"3.9796"},{"name":"garage grow","address":"264 Avenue Lepic","postal_code":"22795","ville":"Saint-Maur-des-Fossés","phone":" +33 25 37 40 54","latitude":"49.9818","longitude":"3.8948"},{"name":"garage mesh","address":"7 Impasse d'Abbeville","postal_code":"18482","ville":"Lille","phone":" +33 76 66 93 05","latitude":"46.8586","longitude":"4.1191"},{"name":"garage optimize","address":"647 Rue des Saussaies","postal_code":"48190","ville":"Saint-Paul","phone":" +33 64 20 57 29","latitude":"48.2347","longitude":"5.5507"},{"name":"garage target","address":"78 Allée de Seine","postal_code":"30129","ville":"Lyon","phone":" +33 35 52 44 63","latitude":"50.3710","longitude":"4.5806"},{"name":"garage redefine","address":"7 Place de Paris","postal_code":"54567","ville":"Paris","phone":" +33 68 74 93 04","latitude":"47.2796","longitude":"2.7200"},{"name":"garage visualize","address":"1346 Quai Monsieur-le-Prince","postal_code":"56033","ville":"Courbevoie","phone":" +33 87 92 70 74","latitude":"48.5933","longitude":"2.4669"},{"name":"garage redefine","address":"09 Allée Marcadet","postal_code":"97942","ville":"Amiens","phone":" +33 87 69 68 31","latitude":"52.7521","longitude":"-2.1848"},{"name":"garage scale","address":"1 Passage Montorgueil","postal_code":"67274","ville":"Neuilly-sur-Seine","phone":" +33 19 30 05 89","latitude":"49.4887","longitude":"2.0005"},{"name":"garage generate","address":"9 Voie des Lombards","postal_code":"45191","ville":"Rueil-Malmaison","phone":" +33 64 09 31 97","latitude":"49.6384","longitude":"1.8815"},{"name":"garage brand","address":"2 Place Charlemagne","postal_code":"68944","ville":"Niort","phone":" +33 79 96 16 89","latitude":"48.4488","longitude":"2.0800"},{"name":"garage generate","address":"690 Rue du Bac","postal_code":"19645","ville":"Mérignac","phone":" +33 12 59 76 26","latitude":"48.1869","longitude":"2.0841"},{"name":"garage disintermediate","address":"2 Boulevard d'Argenteuil","postal_code":"61267","ville":"Clermont-Ferrand","phone":" +33 17 46 23 22","latitude":"47.5869","longitude":"4.6253"},{"name":"garage generate","address":"9 Avenue des Grands Augustins","postal_code":"61420","ville":"Vitry-sur-Seine","phone":" +33 82 73 51 12","latitude":"49.2245","longitude":"-0.3752"},{"name":"garage revolutionize","address":"15 Rue Bonaparte","postal_code":"12894","ville":"Cholet","phone":" +33 70 56 29 25","latitude":"49.3877","longitude":"2.4598"},{"name":"garage aggregate","address":"01 Passage Saint-Denis","postal_code":"98270","ville":"Dijon","phone":" +33 93 36 62 31","latitude":"49.2153","longitude":"2.4430"},{"name":"garage seize","address":"10 Voie Adolphe Mille","postal_code":"26562","ville":"Saint-Denis","phone":" +33 38 48 17 25","latitude":"52.6488","longitude":"1.5633"},{"name":"garage scale","address":"9 Allée Molière","postal_code":"23489","ville":"Mérignac","phone":" +33 29 72 27 00","latitude":"46.4132","longitude":"5.8660"},{"name":"garage incubate","address":"40 Passage Dauphine","postal_code":"02349","ville":"Aix-en-Provence","phone":" +33 04 03 29 11","latitude":"48.1519","longitude":"-0.8130"},{"name":"garage integrate","address":"7 Passage d'Alésia","postal_code":"82354","ville":"Grenoble","phone":" +33 59 98 01 79","latitude":"51.8257","longitude":"6.3669"},{"name":"garage expedite","address":"8 Voie de la Paix","postal_code":"00573","ville":"Villejuif","phone":" +33 42 69 12 16","latitude":"49.6859","longitude":"2.2609"},{"name":"garage repurpose","address":"57 Avenue de Nesle","postal_code":"45871","ville":"Bordeaux","phone":" +33 59 14 17 94","latitude":"47.2456","longitude":"1.4233"},{"name":"garage implement","address":"1304 Allée Mouffetard","postal_code":"94756","ville":"Saint-Étienne","phone":" +33 92 66 97 38","latitude":"46.2022","longitude":"2.8835"},{"name":"garage syndicate","address":"7 Place Montorgueil","postal_code":"71014","ville":"Calais","phone":" +33 00 45 54 47","latitude":"48.1877","longitude":"-2.1981"},{"name":"garage monetize","address":"2911 Rue de la Victoire","postal_code":"73268","ville":"Clichy","phone":" +33 42 66 81 29","latitude":"52.4068","longitude":"3.7146"},{"name":"garage harness","address":"6513 Voie Lepic","postal_code":"94836","ville":"Saint-Nazaire","phone":" +33 34 13 35 22","latitude":"44.8669","longitude":"2.7392"},{"name":"garage scale","address":"798 Allée Saint-Denis","postal_code":"60993","ville":"Metz","phone":" +33 28 69 59 19","latitude":"48.8745","longitude":"4.5751"},{"name":"garage cultivate","address":"81 Avenue du Faubourg Saint-Honoré","postal_code":"32773","ville":"Bourges","phone":" +33 04 85 58 85","latitude":"46.1031","longitude":"7.1454"},{"name":"garage monetize","address":"3 Passage des Saussaies","postal_code":"59495","ville":"Rouen","phone":" +33 54 32 07 27","latitude":"51.5828","longitude":"1.0691"},{"name":"garage synthesize","address":"6711 Voie du Chat-qui-Pêche","postal_code":"33462","ville":"Mérignac","phone":" +33 53 37 74 42","latitude":"48.7168","longitude":"1.1163"},{"name":"garage incentivize","address":"7261 Passage Marcadet","postal_code":"32220","ville":"Saint-Denis","phone":" +33 72 91 46 60","latitude":"44.7231","longitude":"3.3650"},{"name":"garage architect","address":"751 Avenue du Chat-qui-Pêche","postal_code":"15534","ville":"Toulon","phone":" +33 58 08 90 99","latitude":"44.6975","longitude":"4.9169"},{"name":"garage aggregate","address":"7 Allée Joubert","postal_code":"14023","ville":"Antony","phone":" +33 80 91 45 62","latitude":"51.3633","longitude":"1.1167"},{"name":"garage benchmark","address":"56 Boulevard Marcadet","postal_code":"33369","ville":"Villeurbanne","phone":" +33 55 94 88 28","latitude":"49.4214","longitude":"1.6323"},{"name":"garage leverage","address":"5 Rue Delesseux","postal_code":"91773","ville":"Nantes","phone":" +33 58 50 72 36","latitude":"50.1477","longitude":"-0.3103"},{"name":"garage aggregate","address":"413 Voie Du Sommerard","postal_code":"90737","ville":"Le Mans","phone":" +33 86 76 61 62","latitude":"50.2364","longitude":"7.0421"},{"name":"garage empower","address":"679 Voie de Seine","postal_code":"46745","ville":"Orléans","phone":" +33 51 64 06 62","latitude":"49.8286","longitude":"-1.6117"},{"name":"garage reinvent","address":"6 Passage du Dahomey","postal_code":"06139","ville":"Vitry-sur-Seine","phone":" +33 42 02 11 74","latitude":"53.6153","longitude":"4.0213"},{"name":"garage engage","address":"5 Passage Mouffetard","postal_code":"93655","ville":"Nantes","phone":" +33 22 86 53 22","latitude":"48.5722","longitude":"4.0524"},{"name":"garage target","address":"821 Place de Richelieu","postal_code":"46507","ville":"Cannes","phone":" +33 07 02 89 52","latitude":"48.9748","longitude":"-1.6467"},{"name":"garage target","address":"3 Place Du Sommerard","postal_code":"60675","ville":"La Seyne-sur-Mer","phone":" +33 37 70 79 86","latitude":"48.7858","longitude":"6.7280"},{"name":"garage syndicate","address":"0236 Boulevard Saint-Séverin","postal_code":"73744","ville":"Nîmes","phone":" +33 53 94 00 72","latitude":"49.9067","longitude":"3.1511"},{"name":"garage grow","address":"45 Boulevard de Montmorency","postal_code":"34733","ville":"Antibes","phone":" +33 94 34 06 82","latitude":"48.6766","longitude":"2.8615"},{"name":"garage transition","address":"1 Place de Caumartin","postal_code":"66255","ville":"Colombes","phone":" +33 58 55 04 22","latitude":"46.3229","longitude":"5.6790"},{"name":"garage deploy","address":"465 Avenue des Francs-Bourgeois","postal_code":"75939","ville":"Limoges","phone":" +33 37 29 07 05","latitude":"45.3483","longitude":"0.3259"},{"name":"garage embrace","address":"9583 Quai du Chat-qui-Pêche","postal_code":"31535","ville":"Tourcoing","phone":" +33 29 38 44 83","latitude":"44.4265","longitude":"2.6681"},{"name":"garage seize","address":"112 Avenue Lepic","postal_code":"87452","ville":"Toulon","phone":" +33 00 59 59 62","latitude":"48.6838","longitude":"3.8431"},{"name":"garage revolutionize","address":"701 Avenue de la Pompe","postal_code":"53318","ville":"Le Havre","phone":" +33 66 20 74 16","latitude":"52.3304","longitude":"2.1700"},{"name":"garage benchmark","address":"5 Passage Mouffetard","postal_code":"11758","ville":"Saint-Maur-des-Fossés","phone":" +33 40 09 83 77","latitude":"48.8040","longitude":"0.4740"},{"name":"garage integrate","address":"1 Quai Joubert","postal_code":"63334","ville":"Aix-en-Provence","phone":" +33 44 49 99 92","latitude":"47.6541","longitude":"3.9309"},{"name":"garage morph","address":"2 Boulevard Molière","postal_code":"90664","ville":"Clichy","phone":" +33 36 24 61 35","latitude":"46.8148","longitude":"2.7027"},{"name":"garage monetize","address":"54 Rue de la Harpe","postal_code":"82328","ville":"Villejuif","phone":" +33 52 33 11 52","latitude":"44.4701","longitude":"4.2151"},{"name":"garage scale","address":"8 Rue de Presbourg","postal_code":"68479","ville":"Drancy","phone":" +33 86 05 41 91","latitude":"46.4448","longitude":"2.4027"},{"name":"garage benchmark","address":"62 Voie Saint-Jacques","postal_code":"22807","ville":"Argenteuil","phone":" +33 94 84 71 18","latitude":"47.4558","longitude":"2.0748"},{"name":"garage unleash","address":"109 Boulevard d'Argenteuil","postal_code":"70883","ville":"Dijon","phone":" +33 65 09 71 25","latitude":"50.6714","longitude":"0.3144"},{"name":"garage monetize","address":"597 Voie de Richelieu","postal_code":"53946","ville":"Perpignan","phone":" +33 87 25 84 15","latitude":"49.4170","longitude":"2.7199"},{"name":"garage cultivate","address":"52 Allée du Havre","postal_code":"98909","ville":"Saint-Denis","phone":" +33 17 49 49 36","latitude":"49.5372","longitude":"0.4014"},{"name":"garage utilize","address":"9842 Voie Oberkampf","postal_code":"82600","ville":"Saint-Étienne","phone":" +33 86 59 47 53","latitude":"50.1147","longitude":"0.9218"},{"name":"garage scale","address":"481 Impasse Bonaparte","postal_code":"51942","ville":"Cergy","phone":" +33 34 58 75 99","latitude":"49.1624","longitude":"1.6638"},{"name":"garage engineer","address":"2486 Allée Saint-Jacques","postal_code":"52957","ville":"Nîmes","phone":" +33 65 16 20 11","latitude":"49.8603","longitude":"3.9733"},{"name":"garage morph","address":"909 Passage La Boétie","postal_code":"83488","ville":"Cergy","phone":" +33 40 50 56 21","latitude":"47.4909","longitude":"-2.2540"},{"name":"garage repurpose","address":"4 Impasse des Grands Augustins","postal_code":"63812","ville":"Saint-Paul","phone":" +33 48 26 23 78","latitude":"48.3282","longitude":"0.3957"},{"name":"garage grow","address":"898 Passage de Rivoli","postal_code":"84503","ville":"Levallois-Perret","phone":" +33 67 86 79 95","latitude":"52.9214","longitude":"1.7728"},{"name":"garage harness","address":"2 Impasse d'Abbeville","postal_code":"03098","ville":"Avignon","phone":" +33 37 56 34 58","latitude":"47.9025","longitude":"4.3583"},{"name":"garage maximize","address":"3074 Boulevard Lepic","postal_code":"25579","ville":"Noisy-le-Grand","phone":" +33 27 54 55 16","latitude":"50.5117","longitude":"1.1848"},{"name":"garage orchestrate","address":"7448 Place du Faubourg-Saint-Denis","postal_code":"68617","ville":"Ajaccio","phone":" +33 84 68 22 73","latitude":"49.5684","longitude":"1.7376"},{"name":"garage visualize","address":"77 Impasse Molière","postal_code":"16860","ville":"Nice","phone":" +33 99 61 70 52","latitude":"46.7859","longitude":"2.7423"},{"name":"garage productize","address":"74 Impasse Saint-Denis","postal_code":"37529","ville":"Hyères","phone":" +33 01 04 30 36","latitude":"51.8720","longitude":"2.5129"},{"name":"garage evolve","address":"9337 Quai Saint-Denis","postal_code":"06722","ville":"Besançon","phone":" +33 87 64 96 69","latitude":"48.9877","longitude":"2.1995"},{"name":"garage cultivate","address":"987 Avenue Marcadet","postal_code":"43683","ville":"Boulogne-Billancourt","phone":" +33 24 13 71 87","latitude":"49.2552","longitude":"5.7773"},{"name":"garage envisioneer","address":"0846 Allée Saint-Honoré","postal_code":"39909","ville":"Antony","phone":" +33 35 13 39 51","latitude":"45.6817","longitude":"-1.6938"},{"name":"garage target","address":"5 Avenue de Provence","postal_code":"42532","ville":"Niort","phone":" +33 50 46 66 77","latitude":"46.8333","longitude":"3.7805"},{"name":"garage morph","address":"9001 Impasse Charlemagne","postal_code":"56116","ville":"Champigny-sur-Marne","phone":" +33 20 04 48 36","latitude":"49.0614","longitude":"0.6730"},{"name":"garage engage","address":"045 Boulevard de Caumartin","postal_code":"95745","ville":"Créteil","phone":" +33 73 23 03 89","latitude":"47.2929","longitude":"-0.9749"},{"name":"garage incubate","address":"500 Quai de Caumartin","postal_code":"64830","ville":"Valence","phone":" +33 88 50 85 15","latitude":"52.4675","longitude":"2.0294"},{"name":"garage productize","address":"909 Impasse Charlemagne","postal_code":"73991","ville":"Rennes","phone":" +33 48 07 93 89","latitude":"51.6747","longitude":"-0.9905"},{"name":"garage disintermediate","address":"20 Avenue de Presbourg","postal_code":"06946","ville":"Bourges","phone":" +33 98 98 01 13","latitude":"46.4104","longitude":"2.3333"},{"name":"garage enable","address":"443 Voie de Montmorency","postal_code":"59655","ville":"Orléans","phone":" +33 34 55 82 43","latitude":"53.4827","longitude":"0.8960"},{"name":"garage utilize","address":"4816 Rue Saint-Honoré","postal_code":"68445","ville":"Nîmes","phone":" +33 41 11 87 33","latitude":"47.2496","longitude":"0.1478"},{"name":"garage target","address":"004 Boulevard de Richelieu","postal_code":"31226","ville":"Nancy","phone":" +33 09 50 10 53","latitude":"45.9893","longitude":"1.0265"},{"name":"garage seize","address":"28 Avenue de la Chaussée-d'Antin","postal_code":"15281","ville":"Dunkerque","phone":" +33 45 69 28 92","latitude":"48.9581","longitude":"2.0775"},{"name":"garage streamline","address":"680 Boulevard de la Bûcherie","postal_code":"56975","ville":"Béziers","phone":" +33 35 03 90 46","latitude":"50.9884","longitude":"6.4423"},{"name":"garage deploy","address":"2 Voie Zadkine","postal_code":"17067","ville":"Poitiers","phone":" +33 04 57 73 25","latitude":"51.2397","longitude":"-0.8334"},{"name":"garage incentivize","address":"8 Allée du Faubourg-Saint-Denis","postal_code":"22100","ville":"Saint-Nazaire","phone":" +33 91 48 21 50","latitude":"48.3890","longitude":"0.4899"},{"name":"garage facilitate","address":"183 Place Montorgueil","postal_code":"56926","ville":"Courbevoie","phone":" +33 08 76 57 10","latitude":"46.9455","longitude":"4.9746"},{"name":"garage evolve","address":"0495 Voie Laffitte","postal_code":"31934","ville":"Pessac","phone":" +33 41 93 70 89","latitude":"48.7789","longitude":"-1.3580"},{"name":"garage synthesize","address":"539 Impasse Saint-Jacques","postal_code":"67880","ville":"Tours","phone":" +33 71 36 19 03","latitude":"53.2514","longitude":"2.7527"},{"name":"garage revolutionize","address":"696 Passage Zadkine","postal_code":"48956","ville":"La Seyne-sur-Mer","phone":" +33 58 48 59 77","latitude":"47.1425","longitude":"-0.7338"},{"name":"garage cultivate","address":"5330 Avenue Joubert","postal_code":"97854","ville":"Bordeaux","phone":" +33 71 76 74 43","latitude":"52.5424","longitude":"-1.7885"},{"name":"garage unleash","address":"0678 Quai des Grands Augustins","postal_code":"72993","ville":"Ivry-sur-Seine","phone":" +33 17 98 20 58","latitude":"48.5219","longitude":"3.4905"},{"name":"garage morph","address":"6149 Voie du Faubourg-Saint-Denis","postal_code":"19968","ville":"Fort-de-France","phone":" +33 36 76 63 25","latitude":"51.3175","longitude":"3.1725"},{"name":"garage mesh","address":"22 Avenue Monsieur-le-Prince","postal_code":"53436","ville":"Lille","phone":" +33 06 87 00 95","latitude":"48.1297","longitude":"2.2869"},{"name":"garage streamline","address":"98 Voie du Faubourg Saint-Honoré","postal_code":"30087","ville":"Nancy","phone":" +33 22 52 71 25","latitude":"48.7150","longitude":"-0.0199"},{"name":"garage enable","address":"6424 Passage d'Assas","postal_code":"04570","ville":"Quimper","phone":" +33 45 16 09 01","latitude":"51.7299","longitude":"2.7591"},{"name":"garage productize","address":"6 Voie La Boétie","postal_code":"70730","ville":"Antibes","phone":" +33 93 63 97 39","latitude":"47.8596","longitude":"-2.3280"},{"name":"garage drive","address":"0358 Rue Monsieur-le-Prince","postal_code":"22707","ville":"Lorient","phone":" +33 15 96 12 25","latitude":"46.9831","longitude":"2.2815"},{"name":"garage seize","address":"5973 Boulevard de la Chaussée-d'Antin","postal_code":"81135","ville":"Asnières-sur-Seine","phone":" +33 60 71 04 76","latitude":"47.0173","longitude":"2.3697"},{"name":"garage syndicate","address":"4 Impasse Laffitte","postal_code":"91411","ville":"Brest","phone":" +33 38 82 84 30","latitude":"45.5461","longitude":"2.0819"},{"name":"garage implement","address":"160 Impasse Pierre Charron","postal_code":"43238","ville":"Le Havre","phone":" +33 90 62 43 10","latitude":"51.3314","longitude":"4.2976"},{"name":"garage reinvent","address":"8415 Allée Oberkampf","postal_code":"45715","ville":"Limoges","phone":" +33 97 72 80 24","latitude":"49.1117","longitude":"3.1294"},{"name":"garage target","address":"3292 Impasse du Dahomey","postal_code":"86681","ville":"Toulon","phone":" +33 34 69 43 88","latitude":"50.5821","longitude":"2.5716"},{"name":"garage productize","address":"46 Impasse Joubert","postal_code":"90869","ville":"Issy-les-Moulineaux","phone":" +33 33 27 99 40","latitude":"46.9373","longitude":"4.8585"},{"name":"garage productize","address":"993 Avenue Saint-Jacques","postal_code":"95710","ville":"Cannes","phone":" +33 63 13 67 70","latitude":"46.7144","longitude":"5.4515"},{"name":"garage unleash","address":"118 Quai Saint-Bernard","postal_code":"65282","ville":"Roubaix","phone":" +33 98 72 08 20","latitude":"48.2580","longitude":"5.5397"},{"name":"garage whiteboard","address":"549 Rue Pastourelle","postal_code":"22971","ville":"Dunkerque","phone":" +33 12 60 71 92","latitude":"52.5114","longitude":"5.4550"},{"name":"garage transition","address":"020 Quai Joubert","postal_code":"07003","ville":"Mulhouse","phone":" +33 64 30 36 06","latitude":"50.2846","longitude":"4.6335"},{"name":"garage mesh","address":"010 Quai du Bac","postal_code":"86969","ville":"Nantes","phone":" +33 45 97 46 01","latitude":"45.4761","longitude":"0.1644"},{"name":"garage cultivate","address":"71 Quai du Bac","postal_code":"36826","ville":"Dijon","phone":" +33 25 86 29 07","latitude":"50.8748","longitude":"2.5973"},{"name":"garage strategize","address":"102 Avenue Molière","postal_code":"86352","ville":"Dijon","phone":" +33 66 06 02 12","latitude":"45.5512","longitude":"3.2239"},{"name":"garage exploit","address":"92 Place d'Argenteuil","postal_code":"25129","ville":"Le Havre","phone":" +33 52 64 91 03","latitude":"49.9368","longitude":"2.6183"},{"name":"garage exploit","address":"39 Boulevard de l'Odéon","postal_code":"36096","ville":"Reims","phone":" +33 19 82 89 29","latitude":"52.3725","longitude":"2.5261"},{"name":"garage target","address":"884 Avenue du Havre","postal_code":"94393","ville":"Lille","phone":" +33 26 10 27 46","latitude":"44.5193","longitude":"3.1615"},{"name":"garage whiteboard","address":"7500 Rue Saint-Séverin","postal_code":"53937","ville":"Metz","phone":" +33 49 40 87 73","latitude":"49.7491","longitude":"1.9180"},{"name":"garage benchmark","address":"1029 Voie des Panoramas","postal_code":"24850","ville":"Tourcoing","phone":" +33 70 07 71 11","latitude":"49.3331","longitude":"2.4059"},{"name":"garage synthesize","address":"8 Voie Dauphine","postal_code":"12684","ville":"Quimper","phone":" +33 98 86 19 77","latitude":"50.2887","longitude":"3.6330"},{"name":"garage mesh","address":"423 Boulevard Molière","postal_code":"40769","ville":"Roubaix","phone":" +33 63 58 50 71","latitude":"51.4990","longitude":"1.7753"},{"name":"garage enhance","address":"2 Voie Saint-Bernard","postal_code":"00327","ville":"Aubervilliers","phone":" +33 75 97 04 41","latitude":"49.2624","longitude":"4.9685"},{"name":"garage iterate","address":"7 Passage de Paris","postal_code":"11508","ville":"La Seyne-sur-Mer","phone":" +33 68 18 61 65","latitude":"51.9281","longitude":"-0.2183"},{"name":"garage mesh","address":"0113 Passage Joubert","postal_code":"24186","ville":"Béziers","phone":" +33 29 47 89 73","latitude":"48.8130","longitude":"-0.8336"},{"name":"garage innovate","address":"00 Boulevard Delesseux","postal_code":"23527","ville":"Tourcoing","phone":" +33 16 94 87 64","latitude":"49.2986","longitude":"7.0154"},{"name":"garage generate","address":"1 Avenue Du Sommerard","postal_code":"89606","ville":"Pau","phone":" +33 09 29 34 79","latitude":"49.0773","longitude":"-2.3303"},{"name":"garage facilitate","address":"941 Allée Molière","postal_code":"44430","ville":"Rueil-Malmaison","phone":" +33 90 55 40 28","latitude":"49.0678","longitude":"5.7990"},{"name":"garage engage","address":"87 Voie de la Bûcherie","postal_code":"42273","ville":"Nantes","phone":" +33 73 95 15 35","latitude":"47.4896","longitude":"7.5907"},{"name":"garage utilize","address":"740 Avenue Vaneau","postal_code":"98859","ville":"Avignon","phone":" +33 20 89 36 78","latitude":"49.9268","longitude":"4.5707"},{"name":"garage incentivize","address":"92 Rue Oberkampf","postal_code":"19221","ville":"Niort","phone":" +33 50 46 61 34","latitude":"48.6000","longitude":"6.6569"},{"name":"garage grow","address":"52 Voie de Richelieu","postal_code":"43281","ville":"Grenoble","phone":" +33 41 27 71 84","latitude":"45.5012","longitude":"2.2582"},{"name":"garage architect","address":"1197 Impasse de la Pompe","postal_code":"14372","ville":"Roubaix","phone":" +33 33 02 89 89","latitude":"51.2846","longitude":"-0.4075"},{"name":"garage envisioneer","address":"8 Rue des Panoramas","postal_code":"03977","ville":"Lyon","phone":" +33 91 51 26 64","latitude":"49.7349","longitude":"1.0051"},{"name":"garage transition","address":"43 Place des Rosiers","postal_code":"84851","ville":"Valence","phone":" +33 71 43 38 67","latitude":"50.7475","longitude":"0.9740"},{"name":"garage transform","address":"4033 Place Saint-Séverin","postal_code":"81688","ville":"Brest","phone":" +33 97 08 48 33","latitude":"48.5570","longitude":"-0.0639"},{"name":"garage reintermediate","address":"4221 Impasse d'Alésia","postal_code":"70386","ville":"Lille","phone":" +33 86 35 80 26","latitude":"48.4218","longitude":"5.3395"},{"name":"garage exploit","address":"6 Voie de la Harpe","postal_code":"02358","ville":"Saint-Denis","phone":" +33 25 89 40 66","latitude":"48.0372","longitude":"1.1122"},{"name":"garage disintermediate","address":"4283 Allée des Grands Augustins","postal_code":"97570","ville":"Nîmes","phone":" +33 36 25 04 24","latitude":"49.0539","longitude":"3.0668"},{"name":"garage transition","address":"919 Quai du Faubourg Saint-Honoré","postal_code":"45837","ville":"Antony","phone":" +33 45 47 93 20","latitude":"46.9513","longitude":"-0.2481"},{"name":"garage optimize","address":"24 Impasse Royale","postal_code":"78402","ville":"Niort","phone":" +33 82 05 83 49","latitude":"47.4247","longitude":"0.1871"},{"name":"garage reinvent","address":"28 Boulevard de Vaugirard","postal_code":"87239","ville":"Caen","phone":" +33 68 38 78 75","latitude":"49.1358","longitude":"2.3822"},{"name":"garage drive","address":"74 Boulevard de Nesle","postal_code":"27737","ville":"Montpellier","phone":" +33 90 03 58 04","latitude":"51.5114","longitude":"3.9411"},{"name":"garage brand","address":"3 Voie de Nesle","postal_code":"00495","ville":"Saint-Maur-des-Fossés","phone":" +33 51 78 80 17","latitude":"47.1720","longitude":"3.7223"},{"name":"garage reinvent","address":"419 Avenue de Caumartin","postal_code":"47990","ville":"Lille","phone":" +33 87 42 70 80","latitude":"43.8957","longitude":"2.8331"},{"name":"garage leverage","address":"6 Impasse de la Chaussée-d'Antin","postal_code":"66862","ville":"Cannes","phone":" +33 73 04 15 14","latitude":"48.0683","longitude":"3.9323"},{"name":"garage enhance","address":"539 Avenue des Rosiers","postal_code":"94003","ville":"Dijon","phone":" +33 19 70 10 65","latitude":"50.5538","longitude":"1.5220"},{"name":"garage exploit","address":"73 Impasse de Tilsitt","postal_code":"72396","ville":"Dunkerque","phone":" +33 82 87 38 80","latitude":"45.7925","longitude":"5.9575"},{"name":"garage e-enable","address":"880 Place des Rosiers","postal_code":"53292","ville":"Aulnay-sous-Bois","phone":" +33 27 32 47 73","latitude":"51.8633","longitude":"1.6043"},{"name":"garage engineer","address":"60 Avenue de la Ferronnerie","postal_code":"39899","ville":"Perpignan","phone":" +33 20 80 46 28","latitude":"48.3628","longitude":"1.3667"},{"name":"garage deploy","address":"71 Place Montorgueil","postal_code":"61208","ville":"Aulnay-sous-Bois","phone":" +33 39 52 63 27","latitude":"49.3242","longitude":"2.8874"},{"name":"garage leverage","address":"715 Avenue Marcadet","postal_code":"88332","ville":"Ajaccio","phone":" +33 87 51 58 73","latitude":"45.5312","longitude":"-0.6782"},{"name":"garage incubate","address":"55 Impasse du Havre","postal_code":"16095","ville":"Nîmes","phone":" +33 75 62 69 03","latitude":"49.0837","longitude":"1.7314"},{"name":"garage embrace","address":"7032 Impasse des Panoramas","postal_code":"56254","ville":"Bourges","phone":" +33 62 28 94 61","latitude":"48.5216","longitude":"1.1939"},{"name":"garage seize","address":"776 Allée Saint-Bernard","postal_code":"79464","ville":"Créteil","phone":" +33 17 32 82 62","latitude":"52.4766","longitude":"3.7487"},{"name":"garage innovate","address":"32 Passage Saint-Bernard","postal_code":"58316","ville":"Le Havre","phone":" +33 60 05 81 93","latitude":"48.9835","longitude":"-2.4532"},{"name":"garage synergize","address":"8 Voie d'Alésia","postal_code":"54072","ville":"Fort-de-France","phone":" +33 00 01 90 30","latitude":"48.7310","longitude":"0.6498"},{"name":"garage leverage","address":"711 Boulevard Pastourelle","postal_code":"41786","ville":"Versailles","phone":" +33 39 30 19 69","latitude":"47.3365","longitude":"3.7630"},{"name":"garage target","address":"419 Voie Saint-Bernard","postal_code":"21242","ville":"Cannes","phone":" +33 24 47 39 68","latitude":"47.7080","longitude":"5.2158"},{"name":"garage unleash","address":"1474 Impasse de la Chaussée-d'Antin","postal_code":"32242","ville":"Cannes","phone":" +33 20 53 62 84","latitude":"54.0799","longitude":"1.2332"},{"name":"garage repurpose","address":"892 Rue Molière","postal_code":"07792","ville":"Asnières-sur-Seine","phone":" +33 22 91 58 16","latitude":"48.6773","longitude":"-1.3751"},{"name":"garage engage","address":"7 Place Saint-Jacques","postal_code":"06281","ville":"Cergy","phone":" +33 27 26 99 85","latitude":"49.3400","longitude":"3.1624"},{"name":"garage visualize","address":"569 Boulevard de Nesle","postal_code":"03231","ville":"Nancy","phone":" +33 28 66 90 37","latitude":"51.0944","longitude":"-2.4716"},{"name":"garage envisioneer","address":"0279 Place des Francs-Bourgeois","postal_code":"46987","ville":"Pau","phone":" +33 45 73 78 33","latitude":"48.9613","longitude":"2.9968"},{"name":"garage monetize","address":"1 Boulevard Charlemagne","postal_code":"41602","ville":"Dunkerque","phone":" +33 45 68 54 32","latitude":"46.6621","longitude":"-2.8365"},{"name":"garage synthesize","address":"5 Quai Molière","postal_code":"75207","ville":"Avignon","phone":" +33 62 44 34 71","latitude":"49.9160","longitude":"0.2317"},{"name":"garage unleash","address":"2883 Voie Dauphine","postal_code":"63439","ville":"Dunkerque","phone":" +33 73 62 37 83","latitude":"50.6364","longitude":"2.2269"},{"name":"garage aggregate","address":"3407 Quai d'Alésia","postal_code":"74665","ville":"Le Havre","phone":" +33 74 10 28 79","latitude":"49.3607","longitude":"-1.2222"},{"name":"garage empower","address":"2 Avenue de la Bûcherie","postal_code":"83380","ville":"Drancy","phone":" +33 46 75 57 14","latitude":"50.6432","longitude":"3.1507"},{"name":"garage reinvent","address":"434 Quai de la Ferronnerie","postal_code":"12028","ville":"Nantes","phone":" +33 79 06 75 36","latitude":"46.1998","longitude":"2.5616"},{"name":"garage empower","address":"8 Quai des Panoramas","postal_code":"54548","ville":"Cergy","phone":" +33 29 62 38 03","latitude":"47.4256","longitude":"4.8695"},{"name":"garage expedite","address":"9943 Allée Dauphine","postal_code":"60611","ville":"Besançon","phone":" +33 16 41 80 51","latitude":"50.5511","longitude":"1.6335"},{"name":"garage maximize","address":"601 Place Dauphine","postal_code":"97750","ville":"Aubervilliers","phone":" +33 51 09 96 00","latitude":"47.2071","longitude":"-1.7850"},{"name":"garage transition","address":"571 Allée La Boétie","postal_code":"73680","ville":"Aulnay-sous-Bois","phone":" +33 90 14 39 38","latitude":"50.3780","longitude":"1.3123"},{"name":"garage enable","address":"3 Impasse des Rosiers","postal_code":"41209","ville":"Pau","phone":" +33 10 56 26 77","latitude":"47.3711","longitude":"3.9918"},{"name":"garage matrix","address":"0629 Passage du Dahomey","postal_code":"68347","ville":"Dijon","phone":" +33 18 72 95 58","latitude":"46.3454","longitude":"1.4076"},{"name":"garage synergize","address":"739 Place Joubert","postal_code":"54648","ville":"Vénissieux","phone":" +33 86 89 71 31","latitude":"49.0738","longitude":"4.8789"},{"name":"garage deploy","address":"4 Avenue de Provence","postal_code":"49107","ville":"Nancy","phone":" +33 22 78 55 40","latitude":"51.3856","longitude":"1.4938"},{"name":"garage iterate","address":"2894 Avenue de Vaugirard","postal_code":"24945","ville":"Antony","phone":" +33 40 88 14 62","latitude":"48.5134","longitude":"0.7095"},{"name":"garage envisioneer","address":"23 Quai de la Chaussée-d'Antin","postal_code":"36880","ville":"Levallois-Perret","phone":" +33 44 59 70 51","latitude":"46.1770","longitude":"3.3663"},{"name":"garage integrate","address":"4710 Voie Saint-Honoré","postal_code":"09326","ville":"Tours","phone":" +33 94 41 52 17","latitude":"49.5405","longitude":"-0.7636"},{"name":"garage grow","address":"2 Voie du Dahomey","postal_code":"87529","ville":"Lille","phone":" +33 83 33 46 90","latitude":"49.1792","longitude":"2.1496"},{"name":"garage empower","address":"2845 Passage du Faubourg Saint-Honoré","postal_code":"56133","ville":"Lyon","phone":" +33 85 63 38 91","latitude":"44.6641","longitude":"2.1805"},{"name":"garage implement","address":"698 Boulevard Mouffetard","postal_code":"21236","ville":"Poitiers","phone":" +33 06 37 86 04","latitude":"48.1526","longitude":"-2.0350"},{"name":"garage utilize","address":"24 Rue Pastourelle","postal_code":"38324","ville":"Limoges","phone":" +33 02 25 70 25","latitude":"49.1271","longitude":"3.0375"},{"name":"garage iterate","address":"313 Boulevard des Panoramas","postal_code":"96052","ville":"La Rochelle","phone":" +33 50 71 67 65","latitude":"53.4923","longitude":"3.6145"},{"name":"garage empower","address":"520 Allée Zadkine","postal_code":"66382","ville":"Vitry-sur-Seine","phone":" +33 03 27 91 93","latitude":"47.6589","longitude":"3.4394"},{"name":"garage facilitate","address":"9460 Passage de Provence","postal_code":"03234","ville":"Les Abymes","phone":" +33 26 90 53 19","latitude":"47.9208","longitude":"1.1558"},{"name":"garage deliver","address":"6494 Voie Zadkine","postal_code":"65980","ville":"La Seyne-sur-Mer","phone":" +33 44 44 08 85","latitude":"50.2122","longitude":"1.3796"},{"name":"garage orchestrate","address":"9 Voie de la Ferronnerie","postal_code":"68181","ville":"Montauban","phone":" +33 17 27 18 76","latitude":"47.1124","longitude":"1.0723"},{"name":"garage synthesize","address":"224 Place du Bac","postal_code":"41996","ville":"Grenoble","phone":" +33 27 14 06 71","latitude":"48.8623","longitude":"7.4813"},{"name":"garage aggregate","address":"9009 Avenue Saint-Denis","postal_code":"39364","ville":"Nanterre","phone":" +33 86 40 87 82","latitude":"48.1189","longitude":"2.9582"},{"name":"garage incubate","address":"604 Impasse des Lombards","postal_code":"57512","ville":"Lorient","phone":" +33 58 95 74 72","latitude":"48.5466","longitude":"2.1759"},{"name":"garage monetize","address":"974 Rue Charlemagne","postal_code":"13980","ville":"Rueil-Malmaison","phone":" +33 39 65 26 16","latitude":"51.9478","longitude":"5.5867"},{"name":"garage drive","address":"383 Avenue d'Alésia","postal_code":"89492","ville":"Cannes","phone":" +33 06 10 77 34","latitude":"53.6396","longitude":"-1.0168"},{"name":"garage architect","address":"0 Boulevard de Rivoli","postal_code":"76481","ville":"Roubaix","phone":" +33 02 56 12 61","latitude":"52.4456","longitude":"2.2269"},{"name":"garage recontextualize","address":"51 Boulevard de Paris","postal_code":"93437","ville":"Rouen","phone":" +33 74 30 91 89","latitude":"46.9741","longitude":"6.5014"},{"name":"garage recontextualize","address":"1632 Impasse de la Victoire","postal_code":"88242","ville":"Nancy","phone":" +33 16 97 87 73","latitude":"51.6296","longitude":"4.6366"},{"name":"garage redefine","address":"281 Voie Oberkampf","postal_code":"76757","ville":"Cannes","phone":" +33 98 89 50 40","latitude":"49.5616","longitude":"3.4212"},{"name":"garage iterate","address":"59 Boulevard du Faubourg-Saint-Denis","postal_code":"24393","ville":"Beauvais","phone":" +33 91 17 48 62","latitude":"49.0033","longitude":"5.4558"},{"name":"garage expedite","address":"3 Avenue Charlemagne","postal_code":"41366","ville":"Les Abymes","phone":" +33 15 84 26 03","latitude":"51.0316","longitude":"1.5876"},{"name":"garage scale","address":"11 Impasse Lepic","postal_code":"73237","ville":"Bourges","phone":" +33 00 45 42 47","latitude":"44.3268","longitude":"2.7930"},{"name":"garage extend","address":"62 Boulevard Dauphine","postal_code":"77594","ville":"Villeurbanne","phone":" +33 39 60 73 56","latitude":"46.9125","longitude":"2.3313"},{"name":"garage facilitate","address":"1283 Allée de Vaugirard","postal_code":"65551","ville":"Grenoble","phone":" +33 44 42 06 77","latitude":"46.8272","longitude":"1.9483"},{"name":"garage unleash","address":"6544 Passage de Paris","postal_code":"28975","ville":"Nanterre","phone":" +33 76 27 29 84","latitude":"49.9964","longitude":"5.7445"},{"name":"garage implement","address":"66 Impasse des Lombards","postal_code":"70098","ville":"Rennes","phone":" +33 45 31 00 69","latitude":"48.0678","longitude":"-0.0529"},{"name":"garage leverage","address":"49 Rue de Paris","postal_code":"14008","ville":"Lille","phone":" +33 38 02 27 59","latitude":"45.5406","longitude":"4.7609"},{"name":"garage benchmark","address":"5057 Allée Zadkine","postal_code":"70316","ville":"Saint-Nazaire","phone":" +33 44 30 68 93","latitude":"48.1019","longitude":"3.4264"},{"name":"garage drive","address":"3 Passage de la Huchette","postal_code":"05911","ville":"Nantes","phone":" +33 93 09 02 14","latitude":"47.9234","longitude":"-0.0264"},{"name":"garage recontextualize","address":"01 Boulevard Laffitte","postal_code":"42340","ville":"Toulouse","phone":" +33 64 73 62 43","latitude":"48.5071","longitude":"1.3527"},{"name":"garage empower","address":"9824 Avenue des Francs-Bourgeois","postal_code":"75097","ville":"Perpignan","phone":" +33 34 78 92 41","latitude":"49.4825","longitude":"-0.4579"},{"name":"garage utilize","address":"37 Passage d'Argenteuil","postal_code":"82154","ville":"Roubaix","phone":" +33 83 50 86 55","latitude":"44.6023","longitude":"2.3970"},{"name":"garage enhance","address":"83 Quai de Solférino","postal_code":"24535","ville":"Sarcelles","phone":" +33 10 67 47 04","latitude":"47.1011","longitude":"-1.0996"},{"name":"garage utilize","address":"37 Place de la Paix","postal_code":"79404","ville":"Roubaix","phone":" +33 08 28 40 76","latitude":"49.8596","longitude":"0.6306"},{"name":"garage evolve","address":"4 Voie Saint-Honoré","postal_code":"76153","ville":"Marseille","phone":" +33 75 25 74 97","latitude":"49.4057","longitude":"3.5570"},{"name":"garage exploit","address":"67 Avenue des Lombards","postal_code":"13549","ville":"Amiens","phone":" +33 18 59 23 81","latitude":"49.1425","longitude":"4.2665"},{"name":"garage enhance","address":"612 Impasse de la Ferronnerie","postal_code":"26271","ville":"Colmar","phone":" +33 18 68 06 07","latitude":"50.8536","longitude":"-1.4387"},{"name":"garage cultivate","address":"2 Voie de l'Abbaye","postal_code":"62437","ville":"Nice","phone":" +33 81 87 25 05","latitude":"48.9618","longitude":"-2.1956"},{"name":"garage incentivize","address":"278 Impasse Pastourelle","postal_code":"68259","ville":"Mulhouse","phone":" +33 59 59 61 07","latitude":"45.0433","longitude":"0.4552"},{"name":"garage synergize","address":"3 Allée Mouffetard","postal_code":"72850","ville":"Montreuil","phone":" +33 10 36 15 72","latitude":"45.7497","longitude":"2.9577"},{"name":"garage cultivate","address":"6812 Place des Panoramas","postal_code":"83794","ville":"Paris","phone":" +33 98 09 47 24","latitude":"46.7661","longitude":"1.3847"},{"name":"garage maximize","address":"21 Avenue Montorgueil","postal_code":"77344","ville":"Valence","phone":" +33 52 39 66 24","latitude":"47.7360","longitude":"3.1305"},{"name":"garage syndicate","address":"375 Voie de Tilsitt","postal_code":"52107","ville":"Mulhouse","phone":" +33 18 01 56 73","latitude":"49.7220","longitude":"1.5951"},{"name":"garage benchmark","address":"1004 Quai d'Abbeville","postal_code":"83917","ville":"Angers","phone":" +33 02 85 53 35","latitude":"44.6324","longitude":"-0.3355"},{"name":"garage synthesize","address":"1083 Impasse de Solférino","postal_code":"28263","ville":"Rouen","phone":" +33 90 64 85 29","latitude":"49.6566","longitude":"3.5269"},{"name":"garage empower","address":"8 Impasse Lepic","postal_code":"86010","ville":"Drancy","phone":" +33 97 92 79 88","latitude":"53.6355","longitude":"5.8565"},{"name":"garage aggregate","address":"8 Rue de Paris","postal_code":"58305","ville":"Tourcoing","phone":" +33 12 85 21 37","latitude":"53.1977","longitude":"3.2217"},{"name":"garage orchestrate","address":"47 Place Saint-Bernard","postal_code":"19126","ville":"Aubervilliers","phone":" +33 97 71 99 29","latitude":"50.6049","longitude":"3.7150"},{"name":"garage extend","address":"9907 Allée Saint-Dominique","postal_code":"46286","ville":"Dunkerque","phone":" +33 66 38 72 11","latitude":"51.0013","longitude":"1.2315"},{"name":"garage redefine","address":"6 Place des Francs-Bourgeois","postal_code":"21619","ville":"Sarcelles","phone":" +33 20 45 93 50","latitude":"50.2443","longitude":"2.9994"},{"name":"garage harness","address":"9397 Voie Lepic","postal_code":"71414","ville":"Neuilly-sur-Seine","phone":" +33 38 34 03 71","latitude":"48.5239","longitude":"1.9050"},{"name":"garage morph","address":"7 Avenue Saint-Jacques","postal_code":"62194","ville":"Courbevoie","phone":" +33 47 62 17 67","latitude":"48.7997","longitude":"6.3628"},{"name":"garage visualize","address":"4828 Allée Saint-Jacques","postal_code":"67770","ville":"Pau","phone":" +33 90 13 30 21","latitude":"46.7623","longitude":"1.9450"},{"name":"garage scale","address":"333 Avenue Saint-Honoré","postal_code":"90419","ville":"Saint-Denis","phone":" +33 38 74 31 44","latitude":"48.3842","longitude":"6.2609"},{"name":"garage optimize","address":"571 Place de la Chaussée-d'Antin","postal_code":"16526","ville":"Asnières-sur-Seine","phone":" +33 69 57 82 25","latitude":"48.5498","longitude":"3.1178"},{"name":"garage transform","address":"72 Allée Montorgueil","postal_code":"69166","ville":"Nice","phone":" +33 47 17 24 89","latitude":"48.6052","longitude":"1.1727"},{"name":"garage reinvent","address":"330 Boulevard de Rivoli","postal_code":"82739","ville":"Sarcelles","phone":" +33 59 19 68 08","latitude":"50.7530","longitude":"3.1787"},{"name":"garage generate","address":"0 Avenue de Seine","postal_code":"33333","ville":"Montauban","phone":" +33 84 12 06 93","latitude":"45.8156","longitude":"-2.3190"},{"name":"garage optimize","address":"5 Boulevard de la Harpe","postal_code":"21282","ville":"Beauvais","phone":" +33 12 75 71 11","latitude":"44.8800","longitude":"0.0794"},{"name":"garage extend","address":"79 Place de la Ferronnerie","postal_code":"50439","ville":"Le Tampon","phone":" +33 55 78 52 20","latitude":"49.9912","longitude":"1.2616"},{"name":"garage engineer","address":"0 Boulevard des Panoramas","postal_code":"91813","ville":"Troyes","phone":" +33 33 64 18 26","latitude":"48.8906","longitude":"5.1751"},{"name":"garage integrate","address":"2073 Impasse Saint-Jacques","postal_code":"50516","ville":"Lyon","phone":" +33 29 30 22 00","latitude":"49.4636","longitude":"5.4622"},{"name":"garage grow","address":"983 Place Mouffetard","postal_code":"18683","ville":"Versailles","phone":" +33 22 27 54 11","latitude":"49.2678","longitude":"3.1125"},{"name":"garage brand","address":"41 Allée du Dahomey","postal_code":"77067","ville":"Bourges","phone":" +33 06 65 38 34","latitude":"49.6808","longitude":"-0.2788"},{"name":"garage drive","address":"9502 Passage Pastourelle","postal_code":"22821","ville":"Saint-Quentin","phone":" +33 23 04 62 26","latitude":"47.5477","longitude":"2.3027"},{"name":"garage empower","address":"8 Impasse de Rivoli","postal_code":"17550","ville":"Asnières-sur-Seine","phone":" +33 87 04 41 65","latitude":"49.5711","longitude":"3.4866"},{"name":"garage synthesize","address":"1414 Avenue de la Pompe","postal_code":"55139","ville":"Villeneuve-d'Ascq","phone":" +33 65 28 10 08","latitude":"51.2471","longitude":"4.6320"},{"name":"garage transition","address":"5844 Place Zadkine","postal_code":"14679","ville":"Fort-de-France","phone":" +33 63 10 19 53","latitude":"48.5047","longitude":"1.8950"},{"name":"garage streamline","address":"8 Rue Saint-Jacques","postal_code":"33075","ville":"Grenoble","phone":" +33 39 82 33 44","latitude":"50.7033","longitude":"1.2531"},{"name":"garage productize","address":"81 Passage Delesseux","postal_code":"04737","ville":"Sarcelles","phone":" +33 64 03 78 57","latitude":"47.6166","longitude":"4.9785"},{"name":"garage e-enable","address":"71 Voie de la Victoire","postal_code":"94226","ville":"Roubaix","phone":" +33 79 60 35 12","latitude":"45.4224","longitude":"-2.4526"},{"name":"garage innovate","address":"4277 Voie de Nesle","postal_code":"17467","ville":"Clermont-Ferrand","phone":" +33 01 42 13 37","latitude":"43.9468","longitude":"-2.6265"},{"name":"garage optimize","address":"8388 Allée Vaneau","postal_code":"66362","ville":"Tourcoing","phone":" +33 42 90 29 15","latitude":"50.3975","longitude":"1.8589"},{"name":"garage transition","address":"0295 Voie Pastourelle","postal_code":"12176","ville":"Le Tampon","phone":" +33 72 91 65 73","latitude":"51.4298","longitude":"2.7633"},{"name":"garage harness","address":"654 Place de Caumartin","postal_code":"31352","ville":"La Rochelle","phone":" +33 87 05 63 13","latitude":"47.9498","longitude":"4.5127"},{"name":"garage deliver","address":"042 Allée Saint-Dominique","postal_code":"97114","ville":"Cergy","phone":" +33 20 81 46 42","latitude":"48.9219","longitude":"1.4577"},{"name":"garage strategize","address":"44 Quai Saint-Séverin","postal_code":"74442","ville":"Strasbourg","phone":" +33 12 36 07 66","latitude":"50.7246","longitude":"3.0766"},{"name":"garage strategize","address":"6 Allée Dauphine","postal_code":"00453","ville":"Aubervilliers","phone":" +33 51 59 27 50","latitude":"46.0006","longitude":"3.6298"},{"name":"garage leverage","address":"167 Quai de la Bûcherie","postal_code":"00612","ville":"Valence","phone":" +33 74 61 02 38","latitude":"47.2947","longitude":"1.7286"},{"name":"garage drive","address":"48 Place Montorgueil","postal_code":"84808","ville":"Boulogne-Billancourt","phone":" +33 61 32 89 10","latitude":"47.9012","longitude":"3.7177"},{"name":"garage benchmark","address":"3 Avenue Dauphine","postal_code":"84959","ville":"Colombes","phone":" +33 05 98 06 48","latitude":"48.7773","longitude":"3.4487"},{"name":"garage incentivize","address":"89 Passage de Solférino","postal_code":"43712","ville":"Ajaccio","phone":" +33 52 52 66 05","latitude":"48.5169","longitude":"2.2295"},{"name":"garage facilitate","address":"246 Place Saint-Jacques","postal_code":"33578","ville":"Quimper","phone":" +33 47 85 31 58","latitude":"48.1163","longitude":"4.1240"},{"name":"garage redefine","address":"910 Impasse Saint-Honoré","postal_code":"01993","ville":"Nice","phone":" +33 97 38 97 68","latitude":"47.4266","longitude":"2.7326"},{"name":"garage cultivate","address":"5 Rue de Provence","postal_code":"72901","ville":"Poitiers","phone":" +33 60 88 94 49","latitude":"50.0230","longitude":"5.2154"},{"name":"garage embrace","address":"2 Impasse d'Argenteuil","postal_code":"91315","ville":"Nice","phone":" +33 69 62 43 91","latitude":"48.2895","longitude":"4.7297"},{"name":"garage visualize","address":"6429 Boulevard Lepic","postal_code":"89865","ville":"Mérignac","phone":" +33 31 41 52 87","latitude":"48.1638","longitude":"1.7935"},{"name":"garage productize","address":"4186 Impasse de la Victoire","postal_code":"82454","ville":"Vénissieux","phone":" +33 24 11 99 20","latitude":"50.5603","longitude":"5.5830"},{"name":"garage synthesize","address":"2 Voie de Caumartin","postal_code":"21138","ville":"Paris","phone":" +33 91 85 52 30","latitude":"51.7632","longitude":"3.9709"},{"name":"garage enable","address":"396 Voie Montorgueil","postal_code":"76592","ville":"Reims","phone":" +33 68 81 41 20","latitude":"48.1697","longitude":"-0.6543"},{"name":"garage reintermediate","address":"687 Place Bonaparte","postal_code":"56776","ville":"Toulon","phone":" +33 72 05 94 18","latitude":"49.9914","longitude":"2.3155"},{"name":"garage redefine","address":"641 Place Saint-Honoré","postal_code":"30356","ville":"Drancy","phone":" +33 58 19 58 10","latitude":"53.5386","longitude":"-1.3750"},{"name":"garage benchmark","address":"295 Quai de Provence","postal_code":"85404","ville":"Le Tampon","phone":" +33 01 24 46 21","latitude":"48.4136","longitude":"5.3480"},{"name":"garage seize","address":"9488 Passage de Rivoli","postal_code":"18145","ville":"Brest","phone":" +33 81 56 56 69","latitude":"47.8940","longitude":"3.8980"},{"name":"garage brand","address":"317 Quai d'Orsel","postal_code":"95736","ville":"Limoges","phone":" +33 50 98 84 31","latitude":"48.3450","longitude":"2.4109"},{"name":"garage expedite","address":"5 Passage de Nesle","postal_code":"58593","ville":"Niort","phone":" +33 38 58 66 71","latitude":"45.1205","longitude":"2.1133"},{"name":"garage implement","address":"60 Quai de Vaugirard","postal_code":"14102","ville":"Bordeaux","phone":" +33 66 66 70 82","latitude":"53.6389","longitude":"-1.4804"},{"name":"garage innovate","address":"120 Avenue de la Harpe","postal_code":"27518","ville":"Cergy","phone":" +33 82 88 89 29","latitude":"47.7908","longitude":"-0.2248"},{"name":"garage disintermediate","address":"0 Quai du Havre","postal_code":"85030","ville":"Metz","phone":" +33 76 93 41 24","latitude":"50.1301","longitude":"-2.3435"},{"name":"garage disintermediate","address":"38 Passage de l'Odéon","postal_code":"91555","ville":"Noisy-le-Grand","phone":" +33 40 72 80 30","latitude":"48.0318","longitude":"1.4390"},{"name":"garage implement","address":"27 Quai de la Victoire","postal_code":"10565","ville":"Caen","phone":" +33 69 02 55 31","latitude":"44.0687","longitude":"2.4244"},{"name":"garage e-enable","address":"29 Passage Royale","postal_code":"40509","ville":"Montreuil","phone":" +33 57 59 08 91","latitude":"45.7429","longitude":"1.8251"},{"name":"garage monetize","address":"3525 Boulevard des Panoramas","postal_code":"12439","ville":"Argenteuil","phone":" +33 84 08 48 14","latitude":"48.5461","longitude":"2.5714"},{"name":"garage implement","address":"2 Rue Adolphe Mille","postal_code":"84622","ville":"Orléans","phone":" +33 03 56 74 55","latitude":"48.7052","longitude":"5.2935"},{"name":"garage visualize","address":"5 Avenue Zadkine","postal_code":"46141","ville":"Montpellier","phone":" +33 48 82 41 15","latitude":"49.2719","longitude":"1.9336"},{"name":"garage architect","address":"2959 Boulevard de Provence","postal_code":"20134","ville":"Dijon","phone":" +33 94 02 94 13","latitude":"49.1470","longitude":"5.5211"},{"name":"garage matrix","address":"95 Voie de Provence","postal_code":"71630","ville":"Villeneuve-d'Ascq","phone":" +33 98 85 96 34","latitude":"52.2677","longitude":"5.6610"},{"name":"garage deliver","address":"3 Boulevard Saint-Bernard","postal_code":"78156","ville":"Saint-Paul","phone":" +33 71 60 32 59","latitude":"47.3213","longitude":"4.9004"},{"name":"garage incubate","address":"7 Rue du Faubourg Saint-Honoré","postal_code":"18094","ville":"Montauban","phone":" +33 82 27 97 49","latitude":"49.7838","longitude":"0.0663"},{"name":"garage drive","address":"65 Passage de l'Odéon","postal_code":"60551","ville":"Saint-Quentin","phone":" +33 06 94 30 55","latitude":"46.4468","longitude":"-1.0808"},{"name":"garage evolve","address":"747 Impasse de Solférino","postal_code":"16890","ville":"Pau","phone":" +33 48 26 66 79","latitude":"48.4476","longitude":"7.1694"},{"name":"garage evolve","address":"2 Boulevard de la Victoire","postal_code":"74675","ville":"Aubervilliers","phone":" +33 93 21 20 58","latitude":"48.7072","longitude":"5.1196"},{"name":"garage incubate","address":"2 Quai du Faubourg-Saint-Denis","postal_code":"44053","ville":"Niort","phone":" +33 38 83 07 30","latitude":"45.7251","longitude":"4.6310"},{"name":"garage morph","address":"602 Voie de l'Odéon","postal_code":"59332","ville":"Ivry-sur-Seine","phone":" +33 10 41 43 07","latitude":"48.4536","longitude":"-0.4571"},{"name":"garage redefine","address":"28 Passage Dauphine","postal_code":"48164","ville":"Ivry-sur-Seine","phone":" +33 28 71 32 21","latitude":"49.8882","longitude":"-0.3834"},{"name":"garage utilize","address":"4575 Place Saint-Jacques","postal_code":"86001","ville":"Pessac","phone":" +33 08 91 51 58","latitude":"48.8118","longitude":"-0.7730"},{"name":"garage reinvent","address":"7515 Allée Lepic","postal_code":"56037","ville":"Villeneuve-d'Ascq","phone":" +33 95 07 40 63","latitude":"48.1898","longitude":"-0.8219"},{"name":"garage redefine","address":"3 Place d'Argenteuil","postal_code":"11162","ville":"Colmar","phone":" +33 58 58 08 20","latitude":"49.0031","longitude":"3.3127"},{"name":"garage utilize","address":"88 Quai La Boétie","postal_code":"43599","ville":"Ivry-sur-Seine","phone":" +33 71 50 94 64","latitude":"49.6274","longitude":"3.0691"},{"name":"garage enable","address":"5599 Rue des Saussaies","postal_code":"70167","ville":"Limoges","phone":" +33 41 49 01 93","latitude":"47.8459","longitude":"2.3738"},{"name":"garage reinvent","address":"7602 Place de Paris","postal_code":"68867","ville":"Perpignan","phone":" +33 18 93 92 68","latitude":"49.8820","longitude":"1.0636"},{"name":"garage mesh","address":"1583 Place Vaneau","postal_code":"76331","ville":"Tourcoing","phone":" +33 62 57 41 22","latitude":"48.0815","longitude":"1.4641"},{"name":"garage transition","address":"433 Rue Montorgueil","postal_code":"10229","ville":"Champigny-sur-Marne","phone":" +33 27 38 32 30","latitude":"53.4924","longitude":"2.9928"},{"name":"garage whiteboard","address":"3 Impasse Delesseux","postal_code":"20715","ville":"Fort-de-France","phone":" +33 91 19 91 12","latitude":"50.5123","longitude":"2.4504"},{"name":"garage engage","address":"1 Avenue Dauphine","postal_code":"12941","ville":"Toulouse","phone":" +33 07 18 19 83","latitude":"47.9689","longitude":"3.1945"},{"name":"garage target","address":"6 Quai des Saussaies","postal_code":"75141","ville":"Cholet","phone":" +33 56 78 78 43","latitude":"45.3276","longitude":"2.8238"},{"name":"garage unleash","address":"505 Boulevard du Havre","postal_code":"52205","ville":"Ajaccio","phone":" +33 49 95 17 19","latitude":"47.9818","longitude":"6.1713"},{"name":"garage expedite","address":"157 Boulevard de Seine","postal_code":"86266","ville":"Montreuil","phone":" +33 52 97 71 36","latitude":"49.3292","longitude":"-1.6140"},{"name":"garage facilitate","address":"6 Quai de l'Odéon","postal_code":"96792","ville":"Drancy","phone":" +33 36 01 36 56","latitude":"47.3849","longitude":"1.0397"},{"name":"garage expedite","address":"9872 Avenue Pierre Charron","postal_code":"25295","ville":"Cayenne","phone":" +33 20 73 18 65","latitude":"48.1414","longitude":"5.2230"},{"name":"garage seize","address":"920 Place de Provence","postal_code":"08080","ville":"La Seyne-sur-Mer","phone":" +33 74 09 43 55","latitude":"44.9323","longitude":"0.1914"},{"name":"garage whiteboard","address":"564 Boulevard Delesseux","postal_code":"27236","ville":"Pessac","phone":" +33 39 65 69 36","latitude":"45.8057","longitude":"4.5465"},{"name":"garage extend","address":"427 Voie Laffitte","postal_code":"30487","ville":"Troyes","phone":" +33 22 14 87 44","latitude":"51.3965","longitude":"2.1243"},{"name":"garage monetize","address":"7126 Rue de Solférino","postal_code":"93923","ville":"Metz","phone":" +33 46 35 58 84","latitude":"48.7587","longitude":"3.7833"},{"name":"garage engineer","address":"1295 Place Dauphine","postal_code":"97912","ville":"Toulon","phone":" +33 78 86 66 68","latitude":"49.5544","longitude":"6.6587"},{"name":"garage benchmark","address":"549 Passage de Provence","postal_code":"88558","ville":"Valence","phone":" +33 17 85 73 66","latitude":"48.4104","longitude":"4.9942"},{"name":"garage synergize","address":"6344 Voie d'Orsel","postal_code":"67437","ville":"Caen","phone":" +33 87 61 39 97","latitude":"46.1597","longitude":"0.3889"},{"name":"garage monetize","address":"5210 Quai de Montmorency","postal_code":"37137","ville":"Aulnay-sous-Bois","phone":" +33 88 12 17 60","latitude":"45.6327","longitude":"-1.5710"},{"name":"garage transition","address":"6802 Avenue du Bac","postal_code":"88893","ville":"Saint-Maur-des-Fossés","phone":" +33 31 83 56 93","latitude":"48.8211","longitude":"3.9988"},{"name":"garage cultivate","address":"1 Place de Seine","postal_code":"35372","ville":"Niort","phone":" +33 87 13 31 12","latitude":"46.3320","longitude":"0.6911"},{"name":"garage expedite","address":"2 Allée des Grands Augustins","postal_code":"61447","ville":"Courbevoie","phone":" +33 61 21 35 08","latitude":"47.9582","longitude":"4.3472"},{"name":"garage orchestrate","address":"1797 Allée Delesseux","postal_code":"74557","ville":"Montpellier","phone":" +33 04 82 65 13","latitude":"48.6906","longitude":"6.9486"},{"name":"garage visualize","address":"31 Passage Saint-Honoré","postal_code":"49058","ville":"Reims","phone":" +33 36 74 78 54","latitude":"44.7187","longitude":"3.6497"},{"name":"garage deliver","address":"855 Rue du Havre","postal_code":"82249","ville":"Argenteuil","phone":" +33 61 97 25 66","latitude":"50.4056","longitude":"4.3667"},{"name":"garage scale","address":"154 Voie Laffitte","postal_code":"55204","ville":"Marseille","phone":" +33 92 19 49 36","latitude":"50.8210","longitude":"5.3874"},{"name":"garage synergize","address":"571 Quai Saint-Denis","postal_code":"85810","ville":"Valence","phone":" +33 90 75 05 89","latitude":"52.6678","longitude":"1.7637"},{"name":"garage cultivate","address":"53 Place des Lombards","postal_code":"58146","ville":"Beauvais","phone":" +33 32 94 65 29","latitude":"46.6773","longitude":"6.3328"},{"name":"garage engage","address":"14 Voie Oberkampf","postal_code":"46386","ville":"La Rochelle","phone":" +33 95 49 20 61","latitude":"45.6771","longitude":"0.9201"},{"name":"garage expedite","address":"5 Impasse Zadkine","postal_code":"03192","ville":"Argenteuil","phone":" +33 27 40 40 33","latitude":"44.2225","longitude":"6.4359"},{"name":"garage deploy","address":"3 Voie de la Victoire","postal_code":"51555","ville":"Neuilly-sur-Seine","phone":" +33 71 75 46 88","latitude":"51.3461","longitude":"1.9907"},{"name":"garage enable","address":"82 Passage d'Abbeville","postal_code":"06978","ville":"Marseille","phone":" +33 29 24 93 95","latitude":"49.2661","longitude":"6.5443"},{"name":"garage grow","address":"229 Place Zadkine","postal_code":"03918","ville":"Vénissieux","phone":" +33 63 82 37 71","latitude":"50.5593","longitude":"6.7299"},{"name":"garage transition","address":"380 Avenue Saint-Dominique","postal_code":"87120","ville":"Dijon","phone":" +33 45 34 34 98","latitude":"50.7469","longitude":"4.1569"},{"name":"garage reinvent","address":"097 Boulevard du Chat-qui-Pêche","postal_code":"09036","ville":"Montauban","phone":" +33 34 05 67 87","latitude":"47.1597","longitude":"0.6066"},{"name":"garage cultivate","address":"73 Quai Delesseux","postal_code":"19477","ville":"Le Mans","phone":" +33 71 62 53 09","latitude":"45.0518","longitude":"-1.0259"},{"name":"garage harness","address":"537 Allée Saint-Séverin","postal_code":"97559","ville":"Nancy","phone":" +33 93 69 57 13","latitude":"49.6777","longitude":"3.6001"},{"name":"garage optimize","address":"3 Place La Boétie","postal_code":"82999","ville":"Mérignac","phone":" +33 10 89 94 97","latitude":"46.8265","longitude":"6.7811"},{"name":"garage optimize","address":"8 Rue Saint-Jacques","postal_code":"95280","ville":"Cholet","phone":" +33 14 26 80 51","latitude":"49.3558","longitude":"3.2981"},{"name":"garage monetize","address":"4 Avenue du Havre","postal_code":"41384","ville":"Drancy","phone":" +33 76 75 07 75","latitude":"47.7607","longitude":"1.1006"},{"name":"garage exploit","address":"88 Impasse de Richelieu","postal_code":"62700","ville":"Amiens","phone":" +33 61 30 26 09","latitude":"49.5158","longitude":"0.6935"},{"name":"garage recontextualize","address":"3 Avenue de la Victoire","postal_code":"80344","ville":"Saint-Nazaire","phone":" +33 27 53 94 94","latitude":"48.6528","longitude":"5.8977"},{"name":"garage enhance","address":"0293 Quai de l'Abbaye","postal_code":"96883","ville":"Pessac","phone":" +33 53 59 87 13","latitude":"45.6439","longitude":"2.4292"},{"name":"garage target","address":"5 Avenue de Montmorency","postal_code":"59838","ville":"Clermont-Ferrand","phone":" +33 46 10 91 46","latitude":"49.4139","longitude":"2.9593"},{"name":"garage disintermediate","address":"77 Voie Pastourelle","postal_code":"33973","ville":"Saint-Quentin","phone":" +33 83 51 96 40","latitude":"47.2052","longitude":"-1.4166"},{"name":"garage scale","address":"49 Voie de Presbourg","postal_code":"73591","ville":"Rueil-Malmaison","phone":" +33 15 42 89 04","latitude":"48.3495","longitude":"4.2600"},{"name":"garage unleash","address":"7 Allée Zadkine","postal_code":"57616","ville":"Sarcelles","phone":" +33 10 29 01 91","latitude":"48.9691","longitude":"1.8225"},{"name":"garage leverage","address":"464 Rue d'Alésia","postal_code":"41177","ville":"Brest","phone":" +33 69 03 42 92","latitude":"48.7944","longitude":"2.9458"},{"name":"garage extend","address":"43 Quai Lepic","postal_code":"86365","ville":"Besançon","phone":" +33 77 00 06 18","latitude":"48.8877","longitude":"3.6785"},{"name":"garage recontextualize","address":"173 Impasse de l'Abbaye","postal_code":"72642","ville":"Chambéry","phone":" +33 66 33 45 97","latitude":"47.1624","longitude":"-1.6629"},{"name":"garage drive","address":"180 Avenue de Solférino","postal_code":"49328","ville":"Le Tampon","phone":" +33 79 09 51 15","latitude":"48.1127","longitude":"1.1865"},{"name":"garage seize","address":"340 Quai de l'Abbaye","postal_code":"95845","ville":"Rouen","phone":" +33 87 57 34 36","latitude":"48.7426","longitude":"0.4658"},{"name":"garage leverage","address":"9 Place Zadkine","postal_code":"75243","ville":"Toulouse","phone":" +33 41 16 89 57","latitude":"47.8873","longitude":"2.6090"},{"name":"garage synergize","address":"6 Impasse du Chat-qui-Pêche","postal_code":"31344","ville":"Montreuil","phone":" +33 99 76 03 38","latitude":"48.7741","longitude":"2.5584"},{"name":"garage reintermediate","address":"9 Rue de Rivoli","postal_code":"20246","ville":"Villeneuve-d'Ascq","phone":" +33 46 99 55 76","latitude":"51.2446","longitude":"4.1329"},{"name":"garage engineer","address":"158 Rue de Nesle","postal_code":"15527","ville":"Sarcelles","phone":" +33 24 33 76 20","latitude":"48.1262","longitude":"3.3876"},{"name":"garage facilitate","address":"960 Passage de la Paix","postal_code":"21457","ville":"Rueil-Malmaison","phone":" +33 71 66 44 82","latitude":"51.3052","longitude":"3.0371"},{"name":"garage expedite","address":"8623 Passage de la Victoire","postal_code":"44812","ville":"Clermont-Ferrand","phone":" +33 09 50 38 80","latitude":"49.3266","longitude":"5.4693"},{"name":"garage iterate","address":"341 Avenue Du Sommerard","postal_code":"43705","ville":"Cergy","phone":" +33 70 40 64 28","latitude":"49.1398","longitude":"0.4767"},{"name":"garage strategize","address":"2963 Rue des Panoramas","postal_code":"95213","ville":"Le Havre","phone":" +33 13 72 68 37","latitude":"46.4006","longitude":"4.5176"},{"name":"garage architect","address":"4830 Rue du Faubourg-Saint-Denis","postal_code":"81626","ville":"Créteil","phone":" +33 08 17 88 18","latitude":"48.1275","longitude":"2.6276"},{"name":"garage productize","address":"6 Impasse Royale","postal_code":"36985","ville":"Nantes","phone":" +33 86 51 95 17","latitude":"44.8769","longitude":"2.6211"},{"name":"garage streamline","address":"444 Rue des Francs-Bourgeois","postal_code":"51534","ville":"Saint-Paul","phone":" +33 66 37 40 88","latitude":"53.6700","longitude":"-1.9432"},{"name":"garage empower","address":"1360 Quai des Lombards","postal_code":"78696","ville":"Clermont-Ferrand","phone":" +33 39 06 36 75","latitude":"45.5003","longitude":"-0.3736"},{"name":"garage synthesize","address":"1 Passage Saint-Dominique","postal_code":"27073","ville":"Pessac","phone":" +33 21 81 35 32","latitude":"49.1216","longitude":"1.7402"},{"name":"garage transform","address":"95 Passage Saint-Dominique","postal_code":"55053","ville":"Valence","phone":" +33 04 69 78 15","latitude":"48.5231","longitude":"0.8443"},{"name":"garage drive","address":"00 Place Saint-Honoré","postal_code":"26121","ville":"Reims","phone":" +33 44 37 86 88","latitude":"47.5699","longitude":"2.6342"},{"name":"garage synergize","address":"299 Voie Delesseux","postal_code":"68608","ville":"Calais","phone":" +33 78 98 85 44","latitude":"48.7860","longitude":"4.4341"},{"name":"garage deliver","address":"1 Boulevard de la Huchette","postal_code":"61257","ville":"Nantes","phone":" +33 84 25 01 07","latitude":"47.4991","longitude":"2.5658"},{"name":"garage cultivate","address":"7 Place de la Pompe","postal_code":"70460","ville":"Clermont-Ferrand","phone":" +33 24 48 00 91","latitude":"47.0625","longitude":"-0.7705"},{"name":"garage whiteboard","address":"80 Avenue du Faubourg-Saint-Denis","postal_code":"27833","ville":"Ajaccio","phone":" +33 82 43 86 04","latitude":"49.0301","longitude":"1.1944"},{"name":"garage unleash","address":"2 Rue Du Sommerard","postal_code":"35104","ville":"Calais","phone":" +33 04 23 98 60","latitude":"50.3935","longitude":"7.0127"},{"name":"garage matrix","address":"99 Boulevard Marcadet","postal_code":"71207","ville":"Marseille","phone":" +33 77 39 58 42","latitude":"53.2365","longitude":"1.8563"},{"name":"garage implement","address":"4 Place des Lombards","postal_code":"78323","ville":"Reims","phone":" +33 96 17 50 48","latitude":"48.7732","longitude":"2.6983"},{"name":"garage productize","address":"2 Passage des Panoramas","postal_code":"92458","ville":"Lyon","phone":" +33 34 13 49 85","latitude":"44.1922","longitude":"-0.3350"},{"name":"garage incubate","address":"904 Impasse des Grands Augustins","postal_code":"15502","ville":"Marseille","phone":" +33 15 07 35 95","latitude":"48.8754","longitude":"-0.6840"},{"name":"garage orchestrate","address":"850 Rue de la Pompe","postal_code":"42050","ville":"Aulnay-sous-Bois","phone":" +33 93 43 57 19","latitude":"49.3740","longitude":"3.4703"},{"name":"garage deliver","address":"3 Passage de l'Odéon","postal_code":"57445","ville":"Poitiers","phone":" +33 15 81 30 63","latitude":"47.6543","longitude":"4.4521"},{"name":"garage empower","address":"69 Voie de Paris","postal_code":"05244","ville":"Noisy-le-Grand","phone":" +33 21 53 47 45","latitude":"48.6273","longitude":"-1.8455"},{"name":"garage recontextualize","address":"68 Passage du Bac","postal_code":"26657","ville":"Levallois-Perret","phone":" +33 38 96 30 72","latitude":"51.3769","longitude":"2.0426"},{"name":"garage strategize","address":"3581 Impasse Dauphine","postal_code":"30705","ville":"Cannes","phone":" +33 14 30 50 00","latitude":"51.2711","longitude":"2.3210"},{"name":"garage innovate","address":"35 Impasse de l'Abbaye","postal_code":"95375","ville":"Saint-Étienne","phone":" +33 21 84 76 67","latitude":"47.4487","longitude":"5.1560"},{"name":"garage extend","address":"13 Avenue Zadkine","postal_code":"13698","ville":"Noisy-le-Grand","phone":" +33 76 95 17 55","latitude":"49.7404","longitude":"4.1128"},{"name":"garage seize","address":"9 Place des Grands Augustins","postal_code":"32334","ville":"Chambéry","phone":" +33 54 34 65 05","latitude":"51.9503","longitude":"4.9432"},{"name":"garage scale","address":"7951 Quai de la Harpe","postal_code":"17603","ville":"Caen","phone":" +33 45 56 85 05","latitude":"50.3759","longitude":"0.9108"},{"name":"garage whiteboard","address":"2 Rue de la Chaussée-d'Antin","postal_code":"05036","ville":"Quimper","phone":" +33 25 61 95 78","latitude":"46.0046","longitude":"2.1634"},{"name":"garage optimize","address":"64 Boulevard de Tilsitt","postal_code":"97655","ville":"Amiens","phone":" +33 27 40 60 92","latitude":"48.8823","longitude":"-0.2356"},{"name":"garage scale","address":"8 Quai Saint-Denis","postal_code":"33347","ville":"Beauvais","phone":" +33 22 03 02 08","latitude":"54.1004","longitude":"4.6093"},{"name":"garage target","address":"7817 Quai La Boétie","postal_code":"46734","ville":"Paris","phone":" +33 03 22 18 99","latitude":"50.8842","longitude":"4.7680"},{"name":"garage reintermediate","address":"27 Rue du Dahomey","postal_code":"70346","ville":"Nanterre","phone":" +33 68 22 17 13","latitude":"49.5150","longitude":"1.6139"},{"name":"garage e-enable","address":"52 Voie de Tilsitt","postal_code":"56003","ville":"Dunkerque","phone":" +33 90 30 74 90","latitude":"50.1040","longitude":"2.5498"},{"name":"garage exploit","address":"1 Impasse de Richelieu","postal_code":"05564","ville":"Amiens","phone":" +33 81 58 71 52","latitude":"48.9488","longitude":"-0.2561"},{"name":"garage transform","address":"62 Impasse de Nesle","postal_code":"53321","ville":"Cholet","phone":" +33 29 64 52 55","latitude":"48.5063","longitude":"2.7739"},{"name":"garage incubate","address":"5 Rue Bonaparte","postal_code":"13110","ville":"Noisy-le-Grand","phone":" +33 52 01 48 83","latitude":"49.1733","longitude":"2.1435"},{"name":"garage disintermediate","address":"6010 Allée du Havre","postal_code":"61638","ville":"Noisy-le-Grand","phone":" +33 41 26 28 05","latitude":"51.5118","longitude":"4.6401"},{"name":"garage transition","address":"33 Allée de la Harpe","postal_code":"70223","ville":"Mérignac","phone":" +33 40 49 91 90","latitude":"49.0133","longitude":"-0.0195"},{"name":"garage orchestrate","address":"03 Quai de Seine","postal_code":"30263","ville":"Brest","phone":" +33 41 11 97 77","latitude":"51.5232","longitude":"3.6940"},{"name":"garage monetize","address":"040 Quai d'Orsel","postal_code":"51663","ville":"Champigny-sur-Marne","phone":" +33 23 84 11 62","latitude":"48.3799","longitude":"0.9163"},{"name":"garage transform","address":"15 Passage Saint-Séverin","postal_code":"57198","ville":"Saint-Maur-des-Fossés","phone":" +33 04 85 08 62","latitude":"48.9411","longitude":"1.2424"},{"name":"garage disintermediate","address":"8 Impasse Zadkine","postal_code":"55270","ville":"Boulogne-Billancourt","phone":" +33 76 86 76 34","latitude":"51.1957","longitude":"5.4269"},{"name":"garage benchmark","address":"7 Voie Bonaparte","postal_code":"82005","ville":"Brest","phone":" +33 88 39 08 32","latitude":"51.8323","longitude":"4.0621"},{"name":"garage cultivate","address":"3500 Passage Pierre Charron","postal_code":"46243","ville":"Colombes","phone":" +33 98 48 56 59","latitude":"49.4791","longitude":"-1.3736"},{"name":"garage scale","address":"7 Rue des Grands Augustins","postal_code":"02405","ville":"Issy-les-Moulineaux","phone":" +33 45 15 31 44","latitude":"49.3853","longitude":"6.2363"},{"name":"garage streamline","address":"3 Rue de Richelieu","postal_code":"98342","ville":"Antony","phone":" +33 74 86 68 79","latitude":"48.4856","longitude":"-0.1122"},{"name":"garage extend","address":"9881 Rue Saint-Denis","postal_code":"81707","ville":"Villeneuve-d'Ascq","phone":" +33 20 99 82 20","latitude":"46.2281","longitude":"1.3672"},{"name":"garage reinvent","address":"54 Quai de Caumartin","postal_code":"15244","ville":"Cholet","phone":" +33 08 22 71 68","latitude":"46.2011","longitude":"-1.1016"},{"name":"garage enhance","address":"5147 Place de Montmorency","postal_code":"95264","ville":"Montpellier","phone":" +33 74 60 11 53","latitude":"50.2557","longitude":"3.3318"},{"name":"garage morph","address":"315 Avenue Du Sommerard","postal_code":"99540","ville":"Saint-Denis","phone":" +33 90 16 39 08","latitude":"46.4854","longitude":"3.7615"},{"name":"garage transition","address":"3255 Place Pastourelle","postal_code":"87728","ville":"Antony","phone":" +33 17 24 81 41","latitude":"48.2050","longitude":"6.2372"},{"name":"garage utilize","address":"63 Place de Caumartin","postal_code":"80653","ville":"Issy-les-Moulineaux","phone":" +33 90 32 01 59","latitude":"48.3301","longitude":"-0.3003"},{"name":"garage leverage","address":"03 Avenue du Havre","postal_code":"74447","ville":"Colmar","phone":" +33 64 95 78 58","latitude":"51.7399","longitude":"1.1541"},{"name":"garage deploy","address":"905 Avenue Saint-Jacques","postal_code":"20119","ville":"Angers","phone":" +33 78 95 99 16","latitude":"52.7427","longitude":"7.1158"},{"name":"garage transition","address":"0 Place de la Chaussée-d'Antin","postal_code":"90737","ville":"Neuilly-sur-Seine","phone":" +33 26 86 49 18","latitude":"52.3253","longitude":"2.4305"},{"name":"garage unleash","address":"34 Voie de Seine","postal_code":"20671","ville":"Asnières-sur-Seine","phone":" +33 88 31 85 49","latitude":"49.2015","longitude":"5.5075"},{"name":"garage utilize","address":"9380 Avenue Joubert","postal_code":"19092","ville":"Troyes","phone":" +33 72 01 22 20","latitude":"51.5274","longitude":"1.6024"},{"name":"garage iterate","address":"889 Rue des Panoramas","postal_code":"55638","ville":"Villejuif","phone":" +33 14 84 01 07","latitude":"48.7535","longitude":"2.5252"},{"name":"garage implement","address":"4179 Voie de Presbourg","postal_code":"73801","ville":"Montauban","phone":" +33 48 86 98 60","latitude":"46.5233","longitude":"-2.7270"},{"name":"garage strategize","address":"93 Voie de la Bûcherie","postal_code":"50701","ville":"Le Tampon","phone":" +33 41 83 17 38","latitude":"53.1187","longitude":"1.7032"},{"name":"garage reintermediate","address":"7358 Quai Oberkampf","postal_code":"18759","ville":"Aulnay-sous-Bois","phone":" +33 17 74 41 38","latitude":"46.6641","longitude":"0.4780"},{"name":"garage incubate","address":"0 Quai de la Ferronnerie","postal_code":"71069","ville":"Saint-Denis","phone":" +33 05 58 28 12","latitude":"49.3967","longitude":"2.9248"},{"name":"garage whiteboard","address":"8 Rue de la Paix","postal_code":"14122","ville":"Lille","phone":" +33 51 99 05 06","latitude":"47.2503","longitude":"2.3389"},{"name":"garage morph","address":"1 Passage Saint-Jacques","postal_code":"51207","ville":"Niort","phone":" +33 21 50 90 32","latitude":"52.6090","longitude":"2.5497"},{"name":"garage monetize","address":"1245 Avenue des Grands Augustins","postal_code":"71281","ville":"Fort-de-France","phone":" +33 94 56 73 30","latitude":"50.7757","longitude":"-1.5216"},{"name":"garage aggregate","address":"3 Passage Saint-Denis","postal_code":"31852","ville":"Saint-Maur-des-Fossés","phone":" +33 02 71 18 53","latitude":"48.6924","longitude":"2.3471"},{"name":"garage leverage","address":"9799 Rue d'Assas","postal_code":"65823","ville":"Saint-Denis","phone":" +33 90 05 34 58","latitude":"52.3704","longitude":"7.0954"},{"name":"garage engage","address":"300 Boulevard de Rivoli","postal_code":"70694","ville":"Hyères","phone":" +33 67 20 66 04","latitude":"45.5170","longitude":"5.5383"},{"name":"garage enable","address":"0631 Boulevard des Grands Augustins","postal_code":"52768","ville":"Levallois-Perret","phone":" +33 47 86 54 83","latitude":"46.9036","longitude":"0.0508"},{"name":"garage engineer","address":"8836 Quai d'Abbeville","postal_code":"74594","ville":"Villeurbanne","phone":" +33 80 49 08 13","latitude":"49.6767","longitude":"6.2862"},{"name":"garage transform","address":"6 Boulevard Lepic","postal_code":"04040","ville":"Saint-Denis","phone":" +33 96 21 16 05","latitude":"49.9142","longitude":"-1.8868"},{"name":"garage monetize","address":"6 Rue Saint-Séverin","postal_code":"81936","ville":"Toulon","phone":" +33 31 39 68 55","latitude":"48.9816","longitude":"2.9671"},{"name":"garage exploit","address":"205 Voie Pastourelle","postal_code":"16677","ville":"Paris","phone":" +33 70 60 61 88","latitude":"48.2640","longitude":"2.3375"},{"name":"garage enable","address":"64 Allée de Nesle","postal_code":"83464","ville":"Vénissieux","phone":" +33 91 41 09 53","latitude":"48.5750","longitude":"2.9077"},{"name":"garage whiteboard","address":"9865 Boulevard d'Argenteuil","postal_code":"34193","ville":"Dijon","phone":" +33 38 68 31 22","latitude":"49.7352","longitude":"-0.6351"},{"name":"garage evolve","address":"6526 Quai d'Abbeville","postal_code":"75105","ville":"Issy-les-Moulineaux","phone":" +33 59 97 60 78","latitude":"50.3561","longitude":"2.5149"},{"name":"garage whiteboard","address":"3119 Voie de l'Abbaye","postal_code":"99788","ville":"Calais","phone":" +33 02 74 88 69","latitude":"52.5945","longitude":"3.3467"},{"name":"garage architect","address":"4 Passage du Chat-qui-Pêche","postal_code":"45564","ville":"Nanterre","phone":" +33 03 46 85 67","latitude":"49.6797","longitude":"1.9310"},{"name":"garage morph","address":"2952 Avenue Pastourelle","postal_code":"53269","ville":"Troyes","phone":" +33 17 12 42 41","latitude":"48.7815","longitude":"-0.6962"},{"name":"garage monetize","address":"36 Allée des Saussaies","postal_code":"40573","ville":"Issy-les-Moulineaux","phone":" +33 11 33 54 12","latitude":"52.2189","longitude":"-1.8075"},{"name":"garage extend","address":"935 Passage Delesseux","postal_code":"53009","ville":"Limoges","phone":" +33 15 01 28 20","latitude":"45.8249","longitude":"3.1752"},{"name":"garage e-enable","address":"8027 Impasse Pierre Charron","postal_code":"89599","ville":"Béziers","phone":" +33 97 79 55 39","latitude":"46.8167","longitude":"2.6132"},{"name":"garage matrix","address":"4945 Rue Delesseux","postal_code":"70781","ville":"Nantes","phone":" +33 91 04 86 17","latitude":"53.4075","longitude":"3.4411"},{"name":"garage disintermediate","address":"2469 Allée de la Paix","postal_code":"82874","ville":"Toulon","phone":" +33 50 77 12 30","latitude":"51.3621","longitude":"2.6738"},{"name":"garage disintermediate","address":"2978 Avenue de la Pompe","postal_code":"06889","ville":"Orléans","phone":" +33 05 96 01 74","latitude":"47.0439","longitude":"4.4737"},{"name":"garage utilize","address":"34 Rue d'Assas","postal_code":"45928","ville":"Rennes","phone":" +33 08 78 89 50","latitude":"44.4070","longitude":"2.7301"},{"name":"garage unleash","address":"8 Rue d'Orsel","postal_code":"77862","ville":"Nantes","phone":" +33 56 20 95 18","latitude":"46.4149","longitude":"-0.5370"},{"name":"garage cultivate","address":"5509 Boulevard Vaneau","postal_code":"21776","ville":"Saint-Quentin","phone":" +33 86 41 57 30","latitude":"50.3320","longitude":"-1.8993"},{"name":"garage iterate","address":"97 Quai Saint-Honoré","postal_code":"65979","ville":"Grenoble","phone":" +33 58 49 03 06","latitude":"48.8603","longitude":"5.1698"},{"name":"garage redefine","address":"7816 Rue de Vaugirard","postal_code":"48068","ville":"Sarcelles","phone":" +33 82 27 70 96","latitude":"47.2771","longitude":"1.4806"},{"name":"garage extend","address":"951 Passage du Faubourg Saint-Honoré","postal_code":"83805","ville":"Clermont-Ferrand","phone":" +33 73 39 10 16","latitude":"46.4243","longitude":"3.5470"},{"name":"garage syndicate","address":"475 Impasse Monsieur-le-Prince","postal_code":"78145","ville":"Tours","phone":" +33 16 36 16 00","latitude":"52.2674","longitude":"-0.8656"},{"name":"garage utilize","address":"27 Place Molière","postal_code":"88733","ville":"La Rochelle","phone":" +33 22 61 85 46","latitude":"48.5864","longitude":"5.6643"},{"name":"garage reinvent","address":"666 Voie Pastourelle","postal_code":"95379","ville":"Roubaix","phone":" +33 15 75 76 15","latitude":"48.2698","longitude":"3.5245"},{"name":"garage recontextualize","address":"18 Place de Presbourg","postal_code":"67577","ville":"Besançon","phone":" +33 07 34 71 84","latitude":"53.0120","longitude":"3.8474"},{"name":"garage deliver","address":"4991 Voie des Grands Augustins","postal_code":"84854","ville":"Beauvais","phone":" +33 51 51 20 51","latitude":"49.1210","longitude":"3.1156"},{"name":"garage extend","address":"9 Impasse de la Ferronnerie","postal_code":"87675","ville":"Créteil","phone":" +33 76 06 05 49","latitude":"49.1448","longitude":"0.0051"},{"name":"garage iterate","address":"5 Quai Dauphine","postal_code":"76021","ville":"Clichy","phone":" +33 20 49 35 33","latitude":"44.5625","longitude":"2.2904"},{"name":"garage seize","address":"7 Passage de Caumartin","postal_code":"48893","ville":"Grenoble","phone":" +33 55 11 87 52","latitude":"52.0042","longitude":"4.7099"},{"name":"garage cultivate","address":"101 Avenue de la Huchette","postal_code":"44185","ville":"Antony","phone":" +33 40 15 52 91","latitude":"48.0096","longitude":"1.9434"},{"name":"garage revolutionize","address":"6 Quai des Rosiers","postal_code":"67115","ville":"Aix-en-Provence","phone":" +33 02 93 92 79","latitude":"52.7247","longitude":"2.1772"},{"name":"garage aggregate","address":"304 Allée du Havre","postal_code":"25479","ville":"Caen","phone":" +33 60 13 12 16","latitude":"50.5297","longitude":"1.4944"},{"name":"garage maximize","address":"637 Passage Laffitte","postal_code":"71303","ville":"Valence","phone":" +33 17 18 00 90","latitude":"46.0420","longitude":"1.9441"},{"name":"garage implement","address":"456 Quai Montorgueil","postal_code":"66100","ville":"Rueil-Malmaison","phone":" +33 29 52 55 39","latitude":"52.9027","longitude":"4.9654"},{"name":"garage transform","address":"4 Allée Lepic","postal_code":"76720","ville":"Niort","phone":" +33 10 88 90 40","latitude":"48.8882","longitude":"3.0423"},{"name":"garage streamline","address":"6604 Voie du Bac","postal_code":"43578","ville":"Dijon","phone":" +33 95 22 72 66","latitude":"50.1419","longitude":"2.6778"},{"name":"garage empower","address":"35 Quai d'Assas","postal_code":"05056","ville":"Reims","phone":" +33 59 72 63 00","latitude":"50.8698","longitude":"2.7907"},{"name":"garage engineer","address":"537 Avenue de Caumartin","postal_code":"65109","ville":"Rouen","phone":" +33 54 15 63 77","latitude":"47.0373","longitude":"1.2054"},{"name":"garage whiteboard","address":"002 Quai de la Bûcherie","postal_code":"82138","ville":"Nancy","phone":" +33 66 59 28 10","latitude":"47.1340","longitude":"2.0862"},{"name":"garage engage","address":"2 Allée Charlemagne","postal_code":"77310","ville":"Perpignan","phone":" +33 45 21 22 38","latitude":"48.4747","longitude":"-0.5892"},{"name":"garage engineer","address":"5 Rue Adolphe Mille","postal_code":"99437","ville":"Sarcelles","phone":" +33 53 64 67 08","latitude":"50.9690","longitude":"5.5837"},{"name":"garage redefine","address":"42 Boulevard Monsieur-le-Prince","postal_code":"94182","ville":"Aubervilliers","phone":" +33 37 16 19 89","latitude":"49.4305","longitude":"4.4038"},{"name":"garage generate","address":"019 Avenue de la Pompe","postal_code":"67888","ville":"Lorient","phone":" +33 77 36 10 74","latitude":"46.4959","longitude":"4.4965"},{"name":"garage deploy","address":"7228 Allée Molière","postal_code":"36859","ville":"Amiens","phone":" +33 77 62 30 25","latitude":"47.4271","longitude":"3.7946"},{"name":"garage whiteboard","address":"12 Place de Richelieu","postal_code":"74420","ville":"Saint-Denis","phone":" +33 71 42 24 27","latitude":"50.7429","longitude":"2.0714"},{"name":"garage strategize","address":"3 Quai de Provence","postal_code":"90931","ville":"Cholet","phone":" +33 89 03 22 24","latitude":"48.9006","longitude":"1.8324"},{"name":"garage revolutionize","address":"8058 Boulevard Joubert","postal_code":"46663","ville":"Beauvais","phone":" +33 17 91 03 94","latitude":"51.7729","longitude":"0.8275"},{"name":"garage optimize","address":"93 Avenue Molière","postal_code":"87119","ville":"Le Tampon","phone":" +33 20 59 75 30","latitude":"47.9941","longitude":"2.5997"},{"name":"garage redefine","address":"1092 Rue d'Assas","postal_code":"35396","ville":"Le Tampon","phone":" +33 75 34 99 34","latitude":"46.7491","longitude":"-0.0581"},{"name":"garage leverage","address":"67 Rue Zadkine","postal_code":"71571","ville":"Marseille","phone":" +33 08 88 72 61","latitude":"46.9513","longitude":"4.9480"},{"name":"garage harness","address":"3238 Allée Joubert","postal_code":"00976","ville":"Nanterre","phone":" +33 12 60 06 60","latitude":"52.8758","longitude":"4.4099"},{"name":"garage disintermediate","address":"5 Allée de Montmorency","postal_code":"45125","ville":"Boulogne-Billancourt","phone":" +33 29 84 59 89","latitude":"47.4839","longitude":"2.1904"},{"name":"garage whiteboard","address":"4 Boulevard Dauphine","postal_code":"79840","ville":"Strasbourg","phone":" +33 12 99 24 51","latitude":"48.4879","longitude":"-0.4177"},{"name":"garage grow","address":"450 Place de l'Abbaye","postal_code":"76102","ville":"Pessac","phone":" +33 50 18 03 55","latitude":"51.3063","longitude":"4.1620"},{"name":"garage visualize","address":"100 Quai du Faubourg Saint-Honoré","postal_code":"41036","ville":"Saint-Étienne","phone":" +33 42 26 44 17","latitude":"49.2063","longitude":"0.4878"},{"name":"garage morph","address":"74 Quai Saint-Séverin","postal_code":"32504","ville":"Ivry-sur-Seine","phone":" +33 20 71 84 42","latitude":"52.6619","longitude":"0.5138"},{"name":"garage synergize","address":"7476 Place Bonaparte","postal_code":"90780","ville":"Clermont-Ferrand","phone":" +33 27 77 62 83","latitude":"50.3450","longitude":"1.7687"},{"name":"garage seize","address":"6 Rue du Bac","postal_code":"91476","ville":"Besançon","phone":" +33 29 31 06 44","latitude":"48.0237","longitude":"4.1227"},{"name":"garage implement","address":"6698 Impasse Saint-Jacques","postal_code":"93614","ville":"Rennes","phone":" +33 60 35 27 45","latitude":"47.1816","longitude":"5.2867"},{"name":"garage incubate","address":"6 Allée d'Abbeville","postal_code":"30272","ville":"Clermont-Ferrand","phone":" +33 41 22 03 69","latitude":"48.8793","longitude":"3.4963"},{"name":"garage transition","address":"1 Passage de Solférino","postal_code":"34722","ville":"Aix-en-Provence","phone":" +33 81 69 97 47","latitude":"49.3374","longitude":"2.4260"},{"name":"garage orchestrate","address":"777 Rue Lepic","postal_code":"04180","ville":"Aubervilliers","phone":" +33 10 20 36 60","latitude":"49.6808","longitude":"-0.7391"},{"name":"garage syndicate","address":"7326 Impasse d'Abbeville","postal_code":"76267","ville":"Rueil-Malmaison","phone":" +33 30 86 10 47","latitude":"50.8187","longitude":"4.7024"},{"name":"garage enable","address":"3 Rue de Richelieu","postal_code":"94854","ville":"Boulogne-Billancourt","phone":" +33 60 01 91 38","latitude":"47.1550","longitude":"-0.1910"},{"name":"garage transition","address":"931 Allée de Montmorency","postal_code":"25574","ville":"Antibes","phone":" +33 00 26 60 20","latitude":"48.8601","longitude":"2.9291"},{"name":"garage strategize","address":"6 Allée de la Pompe","postal_code":"65293","ville":"Calais","phone":" +33 64 44 35 32","latitude":"48.7933","longitude":"0.2174"},{"name":"garage strategize","address":"7 Boulevard des Panoramas","postal_code":"11725","ville":"Sarcelles","phone":" +33 23 11 62 79","latitude":"50.9757","longitude":"3.6274"},{"name":"garage benchmark","address":"44 Allée de la Ferronnerie","postal_code":"29167","ville":"Villejuif","phone":" +33 01 72 45 07","latitude":"48.4485","longitude":"3.0576"},{"name":"garage engineer","address":"031 Place Lepic","postal_code":"05667","ville":"Paris","phone":" +33 72 75 14 83","latitude":"53.0024","longitude":"0.2972"},{"name":"garage scale","address":"3 Quai des Panoramas","postal_code":"84920","ville":"Mérignac","phone":" +33 20 42 04 50","latitude":"46.8336","longitude":"0.0170"},{"name":"garage enable","address":"6310 Avenue d'Abbeville","postal_code":"25406","ville":"Saint-Denis","phone":" +33 17 80 44 52","latitude":"48.5664","longitude":"1.1351"},{"name":"garage disintermediate","address":"9 Boulevard des Rosiers","postal_code":"29308","ville":"Dunkerque","phone":" +33 51 66 24 50","latitude":"52.7808","longitude":"-0.8829"}]